[
  {
    "id": 625,
    "name": "N Waterside Ct",
    "lat": 36.1321489196,
    "lon": -94.1412877979,
    "description": null,
    "address1": "4476 North Waterside Court",
    "address2": null,
    "city": "Fayetteville",
    "state": "Arkansas",
    "zip": "72703",
    "country": "United States",
    "notes": null,
    "accessHours": null,
    "timezone": "CST6CDT"
  },
  {
    "id": 617,
    "name": "E 47th Ave Dr",
    "lat": 39.78234255188438,
    "lon": -104.90944397091992,
    "description": null,
    "address1": "6900 E 47th Ave Dr",
    "address2": null,
    "city": "Denver",
    "state": "Colorado",
    "zip": "80216",
    "country": "United States",
    "notes": "",
    "accessHours": {
      "monday": [],
      "tuesday": [],
      "wednesday": [],
      "thursday": [],
      "friday": [],
      "saturday": [],
      "sunday": []
    },
    "timezone": "CST6CDT"
  },
  {
    "id": 477,
    "name": "W 25th St",
    "lat": 41.4837915,
    "lon": -81.7034195,
    "description": null,
    "address1": "2012 W 25th St",
    "address2": "",
    "city": "Cleveland",
    "state": "Ohio",
    "zip": "44113",
    "country": "United States",
    "notes": null,
    "accessHours": {
      "monday": [],
      "tuesday": [],
      "wednesday": [],
      "thursday": [],
      "friday": [],
      "saturday": [],
      "sunday": []
    },
    "timezone": "EST"
  },
  {
    "id": 652,
    "name": "E Capitol Ave",
    "lat": 34.743353828,
    "lon": -92.2642521181,
    "description": null,
    "address1": "600 E Capitol Ave",
    "address2": null,
    "city": "Little Rock",
    "state": "Arkansas",
    "zip": "72202",
    "country": "United States",
    "notes": null,
    "accessHours": null,
    "timezone": "CST6CDT"
  },
  {
    "id": 765,
    "name": "Stevens Fields (Outside Park) ",
    "lat": 43.08262162863875,
    "lon": -89.37339783710276,
    "description": null,
    "address1": "917 E. Miffin Street",
    "address2": "",
    "city": "Madison",
    "state": "Wisconsin",
    "zip": "53703",
    "country": "United States",
    "notes": "",
    "accessHours": {
      "monday": [],
      "tuesday": [],
      "wednesday": [],
      "thursday": [],
      "friday": [],
      "saturday": [],
      "sunday": []
    },
    "timezone": "US/Central"
  },
  {
    "id": 732,
    "name": "S Andrews Ave",
    "lat": 26.1151871203,
    "lon": -80.1433775116,
    "description": null,
    "address1": "529 S Andrews Ave",
    "address2": null,
    "city": "Fort Lauderdale",
    "state": "Florida",
    "zip": "33301",
    "country": "United States",
    "notes": null,
    "accessHours": null,
    "timezone": "EST5EDT"
  },
  {
    "id": 314,
    "name": "San Leandro",
    "lat": 37.85244564131673,
    "lon": -122.29163822599472,
    "description": null,
    "address1": "7th St & Anthony St",
    "address2": "",
    "city": "Berkeley",
    "state": "California",
    "zip": "94710",
    "country": "United States",
    "notes": null,
    "accessHours": {
      "monday": [],
      "tuesday": [],
      "wednesday": [],
      "thursday": [],
      "friday": [],
      "saturday": [],
      "sunday": []
    },
    "timezone": "America/Los_Angeles"
  },
  {
    "id": 554,
    "name": "Hohman Ave",
    "lat": 41.6065446,
    "lon": -87.5220144,
    "description": null,
    "address1": "5895 Hohman Ave",
    "address2": null,
    "city": "Hammond",
    "state": "Illinois",
    "zip": "46320",
    "country": "United States",
    "notes": null,
    "accessHours": null,
    "timezone": "CST6CDT"
  },
  {
    "id": 386,
    "name": "Nob Hill Apartments, LLC",
    "lat": 35.0803299,
    "lon": -106.6026663,
    "description": null,
    "address1": "\t200 Hermosa Dr. NE",
    "address2": "",
    "city": "Albuquerque",
    "state": "New Mexico",
    "zip": "87108",
    "country": "United States",
    "notes": null,
    "accessHours": {
      "monday": [],
      "tuesday": [],
      "wednesday": [],
      "thursday": [],
      "friday": [],
      "saturday": [],
      "sunday": []
    },
    "timezone": "America/Denver"
  },
  {
    "id": 431,
    "name": "San Viewridge",
    "lat": 32.8243242,
    "lon": -117.121043,
    "description": null,
    "address1": "4701 Viewridge Ave",
    "address2": "",
    "city": "San Diego",
    "state": "California",
    "zip": "92123",
    "country": "United States",
    "notes": null,
    "accessHours": {
      "monday": [],
      "tuesday": [],
      "wednesday": [],
      "thursday": [],
      "friday": [],
      "saturday": [],
      "sunday": []
    },
    "timezone": "PST8PDT"
  },
  {
    "id": 426,
    "name": "NW Yeon Ave",
    "lat": 45.55048414239483,
    "lon": -122.72263331338763,
    "description": null,
    "address1": "3943 NW Yeon Ave",
    "address2": "",
    "city": "Portland",
    "state": "Oregon",
    "zip": "97210",
    "country": "United States",
    "notes": "App is having trouble saving location update",
    "accessHours": {
      "monday": [],
      "tuesday": [],
      "wednesday": [],
      "thursday": [],
      "friday": [],
      "saturday": [],
      "sunday": []
    },
    "timezone": "PST8PDT"
  },
  {
    "id": 278,
    "name": "Ottobot Locker 1",
    "lat": 36.1294618,
    "lon": -115.1544356,
    "description": null,
    "address1": "3150 Paradise Rd",
    "address2": "",
    "city": "Las Vegas",
    "state": "Nevada",
    "zip": "89109",
    "country": "United States",
    "notes": null,
    "accessHours": {
      "monday": [],
      "tuesday": [],
      "wednesday": [],
      "thursday": [],
      "friday": [],
      "saturday": [],
      "sunday": []
    },
    "timezone": "US/Pacific"
  },
  {
    "id": 433,
    "name": "Fifth Ave",
    "lat": 32.7322143,
    "lon": -117.1607723,
    "description": null,
    "address1": "2550 Fifth Ave",
    "address2": "",
    "city": "San Diego",
    "state": "California",
    "zip": "92103",
    "country": "United States",
    "notes": null,
    "accessHours": {
      "monday": [],
      "tuesday": [],
      "wednesday": [],
      "thursday": [],
      "friday": [],
      "saturday": [],
      "sunday": []
    },
    "timezone": "PST8PDT"
  },
  {
    "id": 670,
    "name": "Magazine St",
    "lat": 29.9209258,
    "lon": -90.0979841,
    "description": null,
    "address1": "4041 Magazine St",
    "address2": null,
    "city": "New Orleans",
    "state": "Louisiana",
    "zip": "70115",
    "country": "United States",
    "notes": null,
    "accessHours": null,
    "timezone": "CST6CDT"
  },
  {
    "id": 345,
    "name": "Spigolo",
    "lat": 40.4327082,
    "lon": -79.8844654,
    "description": null,
    "address1": "101 Edgewood Ave",
    "address2": "",
    "city": "Pittsburgh",
    "state": "Pennsylvania",
    "zip": "15218",
    "country": "United States",
    "notes": null,
    "accessHours": {
      "monday": [],
      "tuesday": [],
      "wednesday": [],
      "thursday": [],
      "friday": [],
      "saturday": [],
      "sunday": []
    },
    "timezone": "US/Eastern"
  },
  {
    "id": 605,
    "name": "N Capitol St NW",
    "lat": 38.96503636303938,
    "lon": -77.0089974361,
    "description": null,
    "address1": "6101 North Capitol St NW",
    "address2": null,
    "city": "DC",
    "state": "District of Columbia",
    "zip": "20011",
    "country": "United States",
    "notes": null,
    "accessHours": null,
    "timezone": "EST5EDT"
  },
  {
    "id": 309,
    "name": "Glenlake Pkwy",
    "lat": 33.9390821,
    "lon": -84.35926119999999,
    "description": null,
    "address1": "35 Glenlake Pkwy NE",
    "address2": "",
    "city": "Sandy Springs",
    "state": "Georgia",
    "zip": "30328",
    "country": "United States",
    "notes": "At bus stop on right side of road just past entrance drive to UPS HQ at 35 Glenlake Parkway.",
    "accessHours": {
      "monday": [],
      "tuesday": [],
      "wednesday": [],
      "thursday": [],
      "friday": [],
      "saturday": [],
      "sunday": []
    },
    "timezone": "US/East-Indiana"
  },
  {
    "id": 436,
    "name": "Cornerstone Ct W",
    "lat": 32.8969919,
    "lon": -117.1897704,
    "description": null,
    "address1": "6065 Cornerstone Ct W",
    "address2": "",
    "city": "San Diego",
    "state": "California",
    "zip": "92121",
    "country": "United States",
    "notes": null,
    "accessHours": {
      "monday": [],
      "tuesday": [],
      "wednesday": [],
      "thursday": [],
      "friday": [],
      "saturday": [],
      "sunday": []
    },
    "timezone": "PST8PDT"
  },
  
  {
    "id": 660,
    "name": "NW 153rd St",
    "lat": 25.9123368,
    "lon": -80.2992675,
    "description": null,
    "address1": "15290 NW 153rd St",
    "address2": null,
    "city": "Miami Lakes",
    "state": "Florida",
    "zip": "33014",
    "country": "United States",
    "notes": null,
    "accessHours": {
      "monday": [],
      "tuesday": [],
      "wednesday": [],
      "thursday": [],
      "friday": [],
      "saturday": [],
      "sunday": []
    },
    "timezone": "EST5EDT"
  },
  {
    "id": 509,
    "name": "18th St S",
    "lat": 33.5096521,
    "lon": -86.806153,
    "description": null,
    "address1": "120 18th St S",
    "address2": null,
    "city": "Birmingham",
    "state": "Alabama",
    "zip": "35233",
    "country": "United States",
    "notes": null,
    "accessHours": null,
    "timezone": "CST6CDT"
  },
  {
    "id": 663,
    "name": "Oak Grove St",
    "lat": 44.9666424,
    "lon": -93.2822101,
    "description": null,
    "address1": "227 Oak Grove St",
    "address2": null,
    "city": "Minneapolis",
    "state": "Minnesota",
    "zip": "55403",
    "country": "United States",
    "notes": null,
    "accessHours": null,
    "timezone": "CST6CDT"
  },
  {
    "id": 271,
    "name": "LandMark Diner",
    "lat": 33.8542114,
    "lon": -84.3829085,
    "description": null,
    "address1": "3652 Roswell RD NE",
    "address2": "",
    "city": "Atlanta",
    "state": "Georgia",
    "zip": "30305",
    "country": "United States",
    "notes": null,
    "accessHours": {
      "monday": [],
      "tuesday": [],
      "wednesday": [],
      "thursday": [],
      "friday": [],
      "saturday": [],
      "sunday": []
    },
    "timezone": "US/Eastern"
  },
  {
    "id": 417,
    "name": "Grand Ave",
    "lat": 34.0369248,
    "lon": -118.2660332,
    "description": null,
    "address1": "1419 Grand Ave",
    "address2": "",
    "city": "Los Angeles",
    "state": "California",
    "zip": "90015",
    "country": "United States",
    "notes": null,
    "accessHours": {
      "monday": [],
      "tuesday": [],
      "wednesday": [],
      "thursday": [],
      "friday": [],
      "saturday": [],
      "sunday": []
    },
    "timezone": "PST8PDT"
  },
  {
    "id": 764,
    "name": "Stevens Fields (Inside Park) ",
    "lat": 43.08259702757288,
    "lon": -89.37325475745776,
    "description": null,
    "address1": "917 E. Miffin Street",
    "address2": "",
    "city": "Madison",
    "state": "Wisconsin",
    "zip": "53703",
    "country": "United States",
    "notes": "",
    "accessHours": {
      "monday": [],
      "tuesday": [],
      "wednesday": [],
      "thursday": [],
      "friday": [],
      "saturday": [],
      "sunday": []
    },
    "timezone": "US/Central"
  },
  {
    "id": 475,
    "name": "Meyer",
    "lat": 42.4537061,
    "lon": -83.171959,
    "description": null,
    "address1": "21691 Meyer",
    "address2": "",
    "city": "Oak Park",
    "state": "Michigan",
    "zip": "48237",
    "country": "United States",
    "notes": null,
    "accessHours": {
      "monday": [],
      "tuesday": [],
      "wednesday": [],
      "thursday": [],
      "friday": [],
      "saturday": [],
      "sunday": []
    },
    "timezone": "EST"
  },
  {
    "id": 493,
    "name": "5th St NW",
    "lat": 33.77421950192558,
    "lon": -84.37948597080806,
    "description": null,
    "address1": "32 5th St NW",
    "address2": null,
    "city": "Atlanta",
    "state": "Georgia",
    "zip": "30332",
    "country": "United States",
    "notes": null,
    "accessHours": {
      "monday": [],
      "tuesday": [],
      "wednesday": [],
      "thursday": [],
      "friday": [],
      "saturday": [],
      "sunday": []
    },
    "timezone": "EST5EDT"
  },
  {
    "id": 707,
    "name": "N 13th St",
    "lat": 27.96114,
    "lon": -82.44535,
    "description": null,
    "address1": "1901 N 13th St",
    "address2": null,
    "city": "Tampa ",
    "state": "Florida",
    "zip": "33605",
    "country": "United States",
    "notes": null,
    "accessHours": null,
    "timezone": "EST5EDT"
  },
  {
    "id": 470,
    "name": "Blue Island Ave",
    "lat": 41.850521,
    "lon": -87.67138899999999,
    "description": null,
    "address1": "2306 S Blue Island Ave",
    "address2": "",
    "city": "Chicago",
    "state": "Illinois",
    "zip": "60608",
    "country": "United States",
    "notes": null,
    "accessHours": {
      "monday": [],
      "tuesday": [],
      "wednesday": [],
      "thursday": [],
      "friday": [],
      "saturday": [],
      "sunday": []
    },
    "timezone": "CST6CDT"
  },
  {
    "id": 665,
    "name": "N Washington Ave",
    "lat": 44.9890784,
    "lon": -93.2789057,
    "description": null,
    "address1": "800 N Washington Ave",
    "address2": null,
    "city": "Minneapolis",
    "state": "Minnesota",
    "zip": "55401",
    "country": "United States",
    "notes": null,
    "accessHours": null,
    "timezone": "CST6CDT"
  },
  {
    "id": 454,
    "name": " Vista Ridge Village",
    "lat": 40.001198892741606,
    "lon": -105.01970966388897,
    "description": null,
    "address1": "3160 Village Vista Dr",
    "address2": "",
    "city": "Erie",
    "state": "Colorado",
    "zip": "80516",
    "country": "United States",
    "notes": null,
    "accessHours": {
      "monday": [],
      "tuesday": [],
      "wednesday": [],
      "thursday": [],
      "friday": [],
      "saturday": [],
      "sunday": []
    },
    "timezone": "US/Mountain"
  },
  {
    "id": 711,
    "name": "TPA W Cypress St",
    "lat": 27.951828338507166,
    "lon": -82.5422314969242,
    "description": null,
    "address1": "5680 W Cypress St",
    "address2": null,
    "city": "Tampa",
    "state": "Florida",
    "zip": "33607",
    "country": "United States",
    "notes": null,
    "accessHours": {
      "monday": [],
      "tuesday": [],
      "wednesday": [],
      "thursday": [],
      "friday": [],
      "saturday": [],
      "sunday": []
    },
    "timezone": "US/Eastern"
  },
  {
    "id": 638,
    "name": "Jackson Hill St",
    "lat": 29.7643018,
    "lon": -95.4018234,
    "description": null,
    "address1": "320 Jackson Hill St",
    "address2": null,
    "city": "Houston",
    "state": "Texas",
    "zip": "77007",
    "country": "United States",
    "notes": null,
    "accessHours": null,
    "timezone": "CST6CDT"
  },
  {
    "id": 482,
    "name": "E Raymond St",
    "lat": 39.73642299999999,
    "lon": -86.10341799999999,
    "description": null,
    "address1": "3651 E Raymond St",
    "address2": "",
    "city": "Indianapolis",
    "state": "Indiana",
    "zip": "46203",
    "country": "United States",
    "notes": null,
    "accessHours": {
      "monday": [],
      "tuesday": [],
      "wednesday": [],
      "thursday": [],
      "friday": [],
      "saturday": [],
      "sunday": []
    },
    "timezone": "EST5EDT"
  },
  
  {
    "id": 227,
    "name": "SMF-23",
    "lat": 38.735343,
    "lon": -121.224564,
    "description": null,
    "address1": "9249 SIERRA COLLEGE BLVD",
    "address2": null,
    "city": "Roseville",
    "state": "California",
    "zip": "95661",
    "country": "United States",
    "notes": null,
    "accessHours": null,
    "timezone": null
  },
  {
    "id": 282,
    "name": "Second Ship 2",
    "lat": 34.1673854,
    "lon": -118.6208384,
    "description": null,
    "address1": "22647 Ventura Blvd",
    "address2": "",
    "city": "Los Angeles",
    "state": "California",
    "zip": "91364",
    "country": "United States",
    "notes": null,
    "accessHours": {
      "monday": [],
      "tuesday": [],
      "wednesday": [],
      "thursday": [],
      "friday": [],
      "saturday": [],
      "sunday": []
    },
    "timezone": "US/Pacific"
  },
  {
    "id": 478,
    "name": "E 40th St",
    "lat": 41.5115389,
    "lon": -81.6595916,
    "description": null,
    "address1": "1633 E 40th St",
    "address2": "",
    "city": "Cleveland",
    "state": "Ohio",
    "zip": "44103",
    "country": "United States",
    "notes": null,
    "accessHours": {
      "monday": [],
      "tuesday": [],
      "wednesday": [],
      "thursday": [],
      "friday": [],
      "saturday": [],
      "sunday": []
    },
    "timezone": "EST"
  },
  {
    "id": 149,
    "name": "Relai Valentinos",
    "lat": 37.54315724588,
    "lon": -77.44027978839,
    "description": null,
    "address1": "223 E Grace St",
    "address2": null,
    "city": "Richmond",
    "state": "Virginia",
    "zip": "23219",
    "country": "United States",
    "notes": null,
    "accessHours": null,
    "timezone": null
  },
  {
    "id": 733,
    "name": "E Franklin Ave",
    "lat": 44.9627911,
    "lon": -93.2332113,
    "description": null,
    "address1": "2678 E Franklin Ave",
    "address2": null,
    "city": "Minneapolis",
    "state": "Minnesota",
    "zip": "55406",
    "country": "United States",
    "notes": null,
    "accessHours": null,
    "timezone": "CST6CDT"
  },
  
  {
    "id": 505,
    "name": "Menchaca Rd",
    "lat": 30.1851407,
    "lon": -97.8174593,
    "description": null,
    "address1": "8700 Menchaca Rd",
    "address2": null,
    "city": "Austin",
    "state": "Texas",
    "zip": "78748",
    "country": "United States",
    "notes": null,
    "accessHours": null,
    "timezone": "CST6CDT"
  },
  {
    "id": 502,
    "name": "West Ave SW",
    "lat": 33.6666235,
    "lon": -84.027009,
    "description": null,
    "address1": "1181 West Ave SW,",
    "address2": null,
    "city": "Conyers",
    "state": "Georgia",
    "zip": "30012",
    "country": "United States",
    "notes": "Unable to add photos. Continue to keep getting error occurred.  Will add in my SSN ticket",
    "accessHours": null,
    "timezone": "EST5EDT"
  },
  {
    "id": 280,
    "name": "Dragon Tobacco",
    "lat": 39.72329022834598,
    "lon": -121.8487392336404,
    "description": null,
    "address1": "244 Walnut Street",
    "address2": "",
    "city": "Chico",
    "state": "California",
    "zip": "95928",
    "country": "United States",
    "notes": "",
    "accessHours": {
      "monday": [],
      "tuesday": [],
      "wednesday": [],
      "thursday": [],
      "friday": [],
      "saturday": [],
      "sunday": []
    },
    "timezone": "US/Pacific"
  },
  {
    "id": 420,
    "name": "Bristol Pkwy",
    "lat": 33.9832897,
    "lon": -118.390844,
    "description": null,
    "address1": "6200 Bristol Pkwy",
    "address2": "",
    "city": "Culver City",
    "state": "California",
    "zip": "90230",
    "country": "United States",
    "notes": null,
    "accessHours": {
      "monday": [],
      "tuesday": [],
      "wednesday": [],
      "thursday": [],
      "friday": [],
      "saturday": [],
      "sunday": []
    },
    "timezone": "PST8PDT"
  },
  {
    "id": 461,
    "name": "Oakton St.",
    "lat": 42.0252994,
    "lon": -87.783097,
    "description": null,
    "address1": "6301 Oakton St",
    "address2": "",
    "city": "Morton Grove",
    "state": "Illinois",
    "zip": "60053",
    "country": "United States",
    "notes": null,
    "accessHours": {
      "monday": [],
      "tuesday": [],
      "wednesday": [],
      "thursday": [],
      "friday": [],
      "saturday": [],
      "sunday": []
    },
    "timezone": "CST6CDT"
  },
  {
    "id": 700,
    "name": "S Zarzamora St",
    "lat": 29.3056633,
    "lon": -98.5376559,
    "description": null,
    "address1": "10943 S Zarzamora St",
    "address2": null,
    "city": "San Antonio",
    "state": "Texas",
    "zip": "78224",
    "country": "United States",
    "notes": null,
    "accessHours": null,
    "timezone": "CST6CDT"
  },
  {
    "id": 328,
    "name": "LAX-1",
    "lat": 34.154485916463436,
    "lon": -118.64675483134555,
    "description": null,
    "address1": "23805 Calabasas Rd",
    "address2": "",
    "city": "Calabasas",
    "state": "California",
    "zip": "91302",
    "country": "United States",
    "notes": null,
    "accessHours": {
      "monday": [],
      "tuesday": [],
      "wednesday": [],
      "thursday": [],
      "friday": [],
      "saturday": [],
      "sunday": []
    },
    "timezone": "America/Los_Angeles"
  },
  {
    "id": 717,
    "name": "E Broadway Blvd",
    "lat": 32.2226927672,
    "lon": -110.8841537016,
    "description": null,
    "address1": "5055 E Broadway Blvd",
    "address2": null,
    "city": "Tucson",
    "state": "Arizona",
    "zip": "85711",
    "country": "United States",
    "notes": null,
    "accessHours": null,
    "timezone": "PST8PDT"
  },
  {
    "id": 632,
    "name": "SE Olympus St",
    "lat": 27.0584035,
    "lon": -80.128675,
    "description": null,
    "address1": "9300 SE Olympus St",
    "address2": null,
    "city": "Hobe Sound",
    "state": "Florida",
    "zip": "33455",
    "country": "United States",
    "notes": null,
    "accessHours": null,
    "timezone": "EST5EDT"
  },
  {
    "id": 658,
    "name": "SW 56th St",
    "lat": 25.7164359061,
    "lon": -80.3465860814,
    "description": null,
    "address1": "9375 SW 56th St",
    "address2": null,
    "city": "Miami",
    "state": "Florida",
    "zip": "33165",
    "country": "United States",
    "notes": null,
    "accessHours": null,
    "timezone": "EST5EDT"
  },
  {
    "id": 650,
    "name": "Business Lane",
    "lat": 36.1094341,
    "lon": -115.1815706,
    "description": null,
    "address1": "3021 Business Lane",
    "address2": null,
    "city": "Las Vegas",
    "state": "Nevada",
    "zip": "89103",
    "country": "United States",
    "notes": null,
    "accessHours": null,
    "timezone": "PST8PDT"
  },
  
  {
    "id": 703,
    "name": "S 12th St",
    "lat": 38.6038790384,
    "lon": -90.2113504437,
    "description": null,
    "address1": "2400 S 12th St",
    "address2": null,
    "city": "St. Louis",
    "state": "Missouri",
    "zip": "63104",
    "country": "United States",
    "notes": null,
    "accessHours": null,
    "timezone": "CST6CDT"
  },
  {
    "id": 695,
    "name": "Highland Dr",
    "lat": 40.6806184,
    "lon": -111.8432697,
    "description": null,
    "address1": "4190 Highland Dr",
    "address2": null,
    "city": "Millcreek",
    "state": "Utah",
    "zip": "84124",
    "country": "United States",
    "notes": "",
    "accessHours": null,
    "timezone": "MST7MDT"
  },
  {
    "id": 226,
    "name": "SMF-22",
    "lat": 38.644261,
    "lon": -121.17673,
    "description": null,
    "address1": "1150 IRON POINT RD",
    "address2": null,
    "city": "Folsom",
    "state": "California",
    "zip": "95630",
    "country": "United States",
    "notes": null,
    "accessHours": null,
    "timezone": null
  },
  {
    "id": 440,
    "name": "Halleck St",
    "lat": 37.8307347,
    "lon": -122.2905176,
    "description": null,
    "address1": "4243 Halleck St",
    "address2": "",
    "city": "Emeryville",
    "state": "California",
    "zip": "94608",
    "country": "United States",
    "notes": null,
    "accessHours": {
      "monday": [],
      "tuesday": [],
      "wednesday": [],
      "thursday": [],
      "friday": [],
      "saturday": [],
      "sunday": []
    },
    "timezone": "PST8PDT"
  },
  {
    "id": 710,
    "name": "E Polk St",
    "lat": 27.9504114,
    "lon": -82.4598799,
    "description": null,
    "address1": "201 E Polk St",
    "address2": null,
    "city": "Tampa ",
    "state": "Florida",
    "zip": "33602",
    "country": "United States",
    "notes": null,
    "accessHours": {
      "monday": [],
      "tuesday": [],
      "wednesday": [],
      "thursday": [],
      "friday": [],
      "saturday": [],
      "sunday": []
    },
    "timezone": "US/Eastern"
  },
  {
    "id": 447,
    "name": "Evergreen Park Dr SW",
    "lat": 47.0269465,
    "lon": -122.9155012,
    "description": null,
    "address1": "2499 Evergreen Park Dr SW",
    "address2": "",
    "city": "Olympia",
    "state": "Washington",
    "zip": "98502",
    "country": "United States",
    "notes": "Between fedex and ups boxes facing the street",
    "accessHours": {
      "monday": [],
      "tuesday": [],
      "wednesday": [],
      "thursday": [],
      "friday": [],
      "saturday": [],
      "sunday": []
    },
    "timezone": "PST8PDT"
  },
  {
    "id": 767,
    "name": "AAHOACON 2025",
    "lat": 29.941864878494073,
    "lon": -90.06342940334684,
    "description": null,
    "address1": "900 Convention Center Blvd",
    "address2": "",
    "city": "New Orleans",
    "state": "Louisiana",
    "zip": "70130",
    "country": "United States",
    "notes": "",
    "accessHours": {
      "monday": [],
      "tuesday": [],
      "wednesday": [],
      "thursday": [],
      "friday": [],
      "saturday": [],
      "sunday": []
    },
    "timezone": "US/Eastern"
  },
  
  {
    "id": 728,
    "name": "W 9th St",
    "lat": 39.1045209785,
    "lon": -94.6042341046,
    "description": null,
    "address1": "1520 W 9th Street",
    "address2": null,
    "city": "Kansas City",
    "state": "Missouri",
    "zip": "64101",
    "country": "United States",
    "notes": null,
    "accessHours": null,
    "timezone": "CST6CDT"
  },
  {
    "id": 644,
    "name": "N 1st St",
    "lat": 34.8720623,
    "lon": -92.10954,
    "description": null,
    "address1": "517 N 1st St",
    "address2": null,
    "city": "Jacksonville",
    "state": "Arkansas",
    "zip": "72076",
    "country": "United States",
    "notes": null,
    "accessHours": null,
    "timezone": "CST6CDT"
  },
  {
    "id": 602,
    "name": "University Hills",
    "lat": 32.6592557,
    "lon": -96.8054872,
    "description": null,
    "address1": "7300 University Hills Blvd",
    "address2": null,
    "city": "Dallas",
    "state": "Texas",
    "zip": "75241",
    "country": "United States",
    "notes": null,
    "accessHours": null,
    "timezone": "CST6CDT"
  },
  {
    "id": 691,
    "name": "S 2nd St",
    "lat": 39.9427483,
    "lon": -75.1450347,
    "description": null,
    "address1": "411 S 2nd St",
    "address2": null,
    "city": "Philadelphia",
    "state": "Pennsylvania",
    "zip": "19147",
    "country": "United States",
    "notes": null,
    "accessHours": {
      "monday": [],
      "tuesday": [],
      "wednesday": [],
      "thursday": [],
      "friday": [],
      "saturday": [],
      "sunday": []
    },
    "timezone": "EST5EDT"
  },
  {
    "id": 468,
    "name": "Hampton Ave",
    "lat": 43.1044697,
    "lon": -88.0699592,
    "description": null,
    "address1": "12701 W Hampton Ave",
    "address2": "",
    "city": "Butler",
    "state": "Wisconsin",
    "zip": "53007",
    "country": "United States",
    "notes": null,
    "accessHours": {
      "monday": [],
      "tuesday": [],
      "wednesday": [],
      "thursday": [],
      "friday": [],
      "saturday": [],
      "sunday": []
    },
    "timezone": "CST6CDT"
  },
  {
    "id": 506,
    "name": "Research Blvd",
    "lat": 30.4590878,
    "lon": -97.7943735,
    "description": null,
    "address1": "13732-13734 Research Blvd",
    "address2": null,
    "city": "Austin",
    "state": "Texas",
    "zip": "78750",
    "country": "United States",
    "notes": null,
    "accessHours": null,
    "timezone": "CST6CDT"
  },
  {
    "id": 697,
    "name": "S 900 E",
    "lat": 40.6612688,
    "lon": -111.8653516,
    "description": null,
    "address1": "4970 S 900 E",
    "address2": null,
    "city": "Salt Lake City",
    "state": "Utah",
    "zip": "84117",
    "country": "United States",
    "notes": "",
    "accessHours": null,
    "timezone": "MST7MDT"
  },
  {
    "id": 508,
    "name": "Todd Ln",
    "lat": 30.2118308,
    "lon": -97.7368105,
    "description": null,
    "address1": "3913 Todd Ln",
    "address2": null,
    "city": "Austin",
    "state": "Texas",
    "zip": "78744",
    "country": "United States",
    "notes": null,
    "accessHours": null,
    "timezone": "CST6CDT"
  },
  {
    "id": 331,
    "name": "LAX-4",
    "lat": 34.02247875070894,
    "lon": -118.39541465845343,
    "description": null,
    "address1": "9696 Culver Blvd #103",
    "address2": "",
    "city": "Culver City",
    "state": "California",
    "zip": "90232",
    "country": "United States",
    "notes": null,
    "accessHours": {
      "monday": [],
      "tuesday": [],
      "wednesday": [],
      "thursday": [],
      "friday": [],
      "saturday": [],
      "sunday": []
    },
    "timezone": "America/Los_Angeles"
  },
  {
    "id": 251,
    "name": "ZipShip",
    "lat": 33.8053731,
    "lon": -84.43613909999999,
    "description": null,
    "address1": "1855 Plymouth Rd NW",
    "address2": null,
    "city": "Atlanta",
    "state": "Georgia",
    "zip": "30318",
    "country": "United States",
    "notes": null,
    "accessHours": null,
    "timezone": null
  },
  {
    "id": 705,
    "name": "Locust St",
    "lat": 38.6300314,
    "lon": -90.1949304,
    "description": null,
    "address1": "1015 Locust St",
    "address2": null,
    "city": "St. Louis",
    "state": "Missouri",
    "zip": "63101",
    "country": "United States",
    "notes": null,
    "accessHours": null,
    "timezone": "CST6CDT"
  },
  {
    "id": 599,
    "name": "Executive Way",
    "lat": 32.6223538,
    "lon": -96.8582799,
    "description": null,
    "address1": "123 Executive Way",
    "address2": null,
    "city": "Desoto",
    "state": "Texas",
    "zip": "75115",
    "country": "United States",
    "notes": null,
    "accessHours": null,
    "timezone": "CST6CDT"
  },
  {
    "id": 5,
    "name": "Wine Cellar",
    "lat": 39.76108208321007,
    "lon": -121.84271038295572,
    "description": "Wine Cellar",
    "address1": "958 East Ave STE D",
    "address2": " ",
    "city": "Chico",
    "state": "California",
    "zip": "95926",
    "country": "United States",
    "notes": "",
    "accessHours": {
      "monday": [],
      "tuesday": [],
      "wednesday": [],
      "thursday": [],
      "friday": [],
      "saturday": [],
      "sunday": []
    },
    "timezone": null
  },
  {
    "id": 677,
    "name": "N May Ave",
    "lat": 35.5681639567,
    "lon": -97.5665914252,
    "description": null,
    "address1": "9520 N May Ave",
    "address2": null,
    "city": "Oklahoma City",
    "state": "Oklahoma",
    "zip": "73120",
    "country": "United States",
    "notes": null,
    "accessHours": null,
    "timezone": "CST6CDT"
  },
  {
    "id": 456,
    "name": " Arista Broomfield",
    "lat": 39.905533071696354,
    "lon": -105.08762247178231,
    "description": null,
    "address1": "8050 Arista Pl",
    "address2": "#102",
    "city": "Broomfield",
    "state": "Colorado",
    "zip": "80021",
    "country": "United States",
    "notes": null,
    "accessHours": {
      "monday": [],
      "tuesday": [],
      "wednesday": [],
      "thursday": [],
      "friday": [],
      "saturday": [],
      "sunday": []
    },
    "timezone": "US/Mountain"
  },
  {
    "id": 315,
    "name": "Santa Rosa",
    "lat": 37.726385601329284,
    "lon": -122.15223836012775,
    "description": null,
    "address1": "100 Santa Rosa St",
    "address2": "",
    "city": "San Leandro",
    "state": "California",
    "zip": "94577",
    "country": "United States",
    "notes": null,
    "accessHours": {
      "monday": [],
      "tuesday": [],
      "wednesday": [],
      "thursday": [],
      "friday": [],
      "saturday": [],
      "sunday": []
    },
    "timezone": "America/Los_Angeles"
  },
  {
    "id": 366,
    "name": "McKay Landing",
    "lat": 39.9495721,
    "lon": -105.0179588,
    "description": null,
    "address1": "13952 Sky Cove Drive",
    "address2": "",
    "city": "Broomfield",
    "state": "Colorado",
    "zip": "80023-6535",
    "country": "United States",
    "notes": null,
    "accessHours": {
      "monday": [],
      "tuesday": [],
      "wednesday": [],
      "thursday": [],
      "friday": [],
      "saturday": [],
      "sunday": []
    },
    "timezone": "US/Mountain"
  },
  {
    "id": 307,
    "name": "Lot Beer Garden",
    "lat": 38.884598135467826,
    "lon": -77.09771520122882,
    "description": null,
    "address1": "3217 10th St N",
    "address2": "",
    "city": "Arlington",
    "state": "Virginia",
    "zip": "22201",
    "country": "United States",
    "notes": null,
    "accessHours": {
      "monday": [],
      "tuesday": [],
      "wednesday": [],
      "thursday": [],
      "friday": [],
      "saturday": [],
      "sunday": []
    },
    "timezone": "US/Eastern"
  },
  {
    "id": 397,
    "name": "jp&d Oil company",
    "lat": 36.0823589,
    "lon": -79.929937,
    "description": null,
    "address1": "6909 Downwind Rd",
    "address2": "",
    "city": "Greensboro",
    "state": "North Carolina",
    "zip": "27409",
    "country": "United States",
    "notes": null,
    "accessHours": {
      "monday": [],
      "tuesday": [],
      "wednesday": [],
      "thursday": [],
      "friday": [],
      "saturday": [],
      "sunday": []
    },
    "timezone": "US/Eastern"
  },
  {
    "id": 427,
    "name": "SE 18th Ave",
    "lat": 45.4896201,
    "lon": -122.6473655,
    "description": null,
    "address1": "4577 SE 18th Ave",
    "address2": "",
    "city": "Portland",
    "state": "Oregon",
    "zip": "97202",
    "country": "United States",
    "notes": null,
    "accessHours": {
      "monday": [],
      "tuesday": [],
      "wednesday": [],
      "thursday": [],
      "friday": [],
      "saturday": [],
      "sunday": []
    },
    "timezone": "PST8PDT"
  },
  {
    "id": 604,
    "name": "18th St NW",
    "lat": 38.9106246651,
    "lon": -77.0413537155,
    "description": null,
    "address1": "1529 18th St NW",
    "address2": null,
    "city": "DC",
    "state": "District of Columbia",
    "zip": "20036",
    "country": "United States",
    "notes": null,
    "accessHours": null,
    "timezone": "EST5EDT"
  },
  
  {
    "id": 283,
    "name": "Union Fithub",
    "lat": 33.7687028,
    "lon": -84.3607565,
    "description": null,
    "address1": "828 Ralph McGill Blvd NE w4-2",
    "address2": "",
    "city": "Atlanta",
    "state": "Georgia",
    "zip": "30306",
    "country": "United States",
    "notes": null,
    "accessHours": {
      "monday": [],
      "tuesday": [],
      "wednesday": [],
      "thursday": [],
      "friday": [],
      "saturday": [],
      "sunday": []
    },
    "timezone": "US/Eastern"
  },
  {
    "id": 624,
    "name": "XNA - W Pinnacle Pointe",
    "lat": 36.31185211996549,
    "lon": -94.18831393901372,
    "description": null,
    "address1": "5417 W Pinnacle Pointe Dr",
    "address2": null,
    "city": "Rogers",
    "state": "Arkansas",
    "zip": "72758",
    "country": "United States",
    "notes": null,
    "accessHours": {
      "monday": [],
      "tuesday": [],
      "wednesday": [],
      "thursday": [],
      "friday": [],
      "saturday": [],
      "sunday": []
    },
    "timezone": "CST6CDT"
  },
  {
    "id": 54,
    "name": "Studio Work Spaces",
    "lat": 38.771265468058964,
    "lon": -121.26028900278257,
    "description": null,
    "address1": "101 Creekside Ridge Ct",
    "address2": null,
    "city": "Roseville",
    "state": "California",
    "zip": "95678",
    "country": "United States",
    "notes": "",
    "accessHours": null,
    "timezone": null
  },
  {
    "id": 4,
    "name": "Blue Oval Food Mart",
    "lat": 39.73145095169519,
    "lon": -121.86073553759778,
    "description": "Blue Oval Food Mart",
    "address1": "1025 Nord Ave",
    "address2": null,
    "city": "Chico",
    "state": "California",
    "zip": "95926",
    "country": "United States",
    "notes": "",
    "accessHours": null,
    "timezone": null
  },
  {
    "id": 636,
    "name": "Lockwood Dr",
    "lat": 29.7599052,
    "lon": -95.3175666,
    "description": null,
    "address1": "820 Lockwood Dr",
    "address2": null,
    "city": "Houston",
    "state": "Texas",
    "zip": "77020",
    "country": "United States",
    "notes": null,
    "accessHours": null,
    "timezone": "CST6CDT"
  },
  {
    "id": 698,
    "name": "W Olmos Dr",
    "lat": 29.4706159185,
    "lon": -98.4918847597,
    "description": null,
    "address1": "100 W Olmos Dr",
    "address2": null,
    "city": "Olmos Park",
    "state": "Texas",
    "zip": "78212",
    "country": "United States",
    "notes": null,
    "accessHours": null,
    "timezone": "CST6CDT"
  },
  {
    "id": 686,
    "name": "S Knowles Ave",
    "lat": 28.5968075,
    "lon": -81.3498037,
    "description": null,
    "address1": "198 S Knowles Ave",
    "address2": null,
    "city": "Winter Park",
    "state": "Florida",
    "zip": "32789",
    "country": "United States",
    "notes": null,
    "accessHours": null,
    "timezone": "EST5EDT"
  },
  {
    "id": 361,
    "name": "Levander Loop",
    "lat": 30.249966,
    "lon": -97.694622,
    "description": null,
    "address1": "5493 Levander Loop",
    "address2": "",
    "city": "Austin",
    "state": "Texas",
    "zip": "78702",
    "country": "United States",
    "notes": null,
    "accessHours": {
      "monday": [],
      "tuesday": [],
      "wednesday": [],
      "thursday": [],
      "friday": [],
      "saturday": [],
      "sunday": []
    },
    "timezone": "US/Central"
  },
  {
    "id": 681,
    "name": "S 60th St",
    "lat": 41.245482069,
    "lon": -96.0048587239,
    "description": null,
    "address1": "1418 S 60th Street",
    "address2": null,
    "city": "Omaha",
    "state": "Nebraska",
    "zip": "68106",
    "country": "United States",
    "notes": null,
    "accessHours": null,
    "timezone": "CST6CDT"
  },
  {
    "id": 466,
    "name": "Division Hwy",
    "lat": 42.9798653,
    "lon": -87.8789559,
    "description": null,
    "address1": "3547 32nd Division Memorial Hwy",
    "address2": "",
    "city": "Saint Francis",
    "state": "Wisconsin",
    "zip": "53235",
    "country": "United States",
    "notes": null,
    "accessHours": {
      "monday": [],
      "tuesday": [],
      "wednesday": [],
      "thursday": [],
      "friday": [],
      "saturday": [],
      "sunday": []
    },
    "timezone": "CST6CDT"
  },
  
  {
    "id": 631,
    "name": "Main St",
    "lat": 41.7586583702,
    "lon": -72.6754701226,
    "description": null,
    "address1": "241 Main St",
    "address2": null,
    "city": "Hartford",
    "state": "Connecticut",
    "zip": "6106",
    "country": "United States",
    "notes": null,
    "accessHours": {
      "monday": [],
      "tuesday": [],
      "wednesday": [],
      "thursday": [],
      "friday": [],
      "saturday": [],
      "sunday": []
    },
    "timezone": "US/Eastern"
  },
  {
    "id": 472,
    "name": "Montgomery Rd",
    "lat": 39.2386723,
    "lon": -84.35029720000001,
    "description": null,
    "address1": "9977 Montgomery Rd",
    "address2": "",
    "city": "Cincinnati",
    "state": "Ohio",
    "zip": "45242",
    "country": "United States",
    "notes": null,
    "accessHours": {
      "monday": [],
      "tuesday": [],
      "wednesday": [],
      "thursday": [],
      "friday": [],
      "saturday": [],
      "sunday": []
    },
    "timezone": "EST"
  },
  {
    "id": 643,
    "name": "E County Line Rd",
    "lat": 32.4003536,
    "lon": -90.1405063,
    "description": null,
    "address1": "900 E County Line Rd",
    "address2": null,
    "city": "Ridgeland",
    "state": "Mississippi",
    "zip": "39157",
    "country": "United States",
    "notes": null,
    "accessHours": null,
    "timezone": "CST6CDT"
  },
  {
    "id": 444,
    "name": "N Creek Pkwy",
    "lat": 47.774846,
    "lon": -122.1830985,
    "description": null,
    "address1": "11810 N Creek Pkwy",
    "address2": "",
    "city": "Bothell",
    "state": "Washington",
    "zip": "98011",
    "country": "United States",
    "notes": "Left of USPS box",
    "accessHours": {
      "monday": [],
      "tuesday": [],
      "wednesday": [],
      "thursday": [],
      "friday": [],
      "saturday": [],
      "sunday": []
    },
    "timezone": "PST8PDT"
  },
  {
    "id": 446,
    "name": "Union Ave",
    "lat": 47.9119615,
    "lon": -122.0931591,
    "description": null,
    "address1": "116 Union Ave",
    "address2": "",
    "city": "Snohomish",
    "state": "Washington",
    "zip": "98290",
    "country": "United States",
    "notes": "Next to ups drop box",
    "accessHours": {
      "monday": [],
      "tuesday": [],
      "wednesday": [],
      "thursday": [],
      "friday": [],
      "saturday": [],
      "sunday": []
    },
    "timezone": "PST8PDT"
  },
  {
    "id": 445,
    "name": "W Dayton St",
    "lat": 47.8092325,
    "lon": -122.3851548,
    "description": null,
    "address1": "120 W Dayton St",
    "address2": "",
    "city": "Edmonds",
    "state": "Washington",
    "zip": "98020",
    "country": "United States",
    "notes": "Between fedex and ups drop boxes",
    "accessHours": {
      "monday": [],
      "tuesday": [],
      "wednesday": [],
      "thursday": [],
      "friday": [],
      "saturday": [],
      "sunday": []
    },
    "timezone": "PST8PDT"
  },
  {
    "id": 749,
    "name": "Hendry St",
    "lat": 26.6449195,
    "lon": -81.87009499999999,
    "description": null,
    "address1": "1402 Hendry St",
    "address2": "",
    "city": "Fort Myers",
    "state": "Florida",
    "zip": "33901",
    "country": "United States",
    "notes": null,
    "accessHours": {
      "monday": [],
      "tuesday": [],
      "wednesday": [],
      "thursday": [],
      "friday": [],
      "saturday": [],
      "sunday": []
    },
    "timezone": "EST"
  },
  {
    "id": 400,
    "name": "D&L parts company",
    "lat": 35.2324807,
    "lon": -80.8750432,
    "description": null,
    "address1": "2106 Freedom Dr",
    "address2": "",
    "city": "Charlotte",
    "state": "North Carolina",
    "zip": "28208",
    "country": "United States",
    "notes": null,
    "accessHours": {
      "monday": [],
      "tuesday": [],
      "wednesday": [],
      "thursday": [],
      "friday": [],
      "saturday": [],
      "sunday": []
    },
    "timezone": "US/Eastern"
  },
  
  
  {
    "id": 343,
    "name": "TUF Suites",
    "lat": 33.80986318648819,
    "lon": -84.39099669456482,
    "description": null,
    "address1": "2025 Peachtree Rd",
    "address2": "",
    "city": "Atlanta",
    "state": "Georgia",
    "zip": "30309",
    "country": "United States",
    "notes": null,
    "accessHours": {
      "monday": [],
      "tuesday": [],
      "wednesday": [],
      "thursday": [],
      "friday": [],
      "saturday": [],
      "sunday": []
    },
    "timezone": "US/Eastern"
  },
  {
    "id": 363,
    "name": "Abe's Smoke Shop",
    "lat": 30.3068949,
    "lon": -97.7154697,
    "description": null,
    "address1": "4709 airport blvd",
    "address2": "",
    "city": "Austin",
    "state": "Texas",
    "zip": "78751",
    "country": "United States",
    "notes": null,
    "accessHours": {
      "monday": [],
      "tuesday": [],
      "wednesday": [],
      "thursday": [],
      "friday": [],
      "saturday": [],
      "sunday": []
    },
    "timezone": "US/Central"
  },
  {
    "id": 467,
    "name": "Loomis Rd",
    "lat": 42.9561821,
    "lon": -87.9732114,
    "description": null,
    "address1": "4600 W Loomis Rd",
    "address2": "",
    "city": "Greenfield",
    "state": "Wisconsin",
    "zip": "53220",
    "country": "United States",
    "notes": null,
    "accessHours": {
      "monday": [],
      "tuesday": [],
      "wednesday": [],
      "thursday": [],
      "friday": [],
      "saturday": [],
      "sunday": []
    },
    "timezone": "CST6CDT"
  },
  {
    "id": 596,
    "name": "N Washington Ave",
    "lat": 32.7875292,
    "lon": -96.7738504,
    "description": null,
    "address1": "200 N Washington Ave",
    "address2": null,
    "city": "Dallas",
    "state": "Texas",
    "zip": "75246",
    "country": "United States",
    "notes": null,
    "accessHours": null,
    "timezone": "CST6CDT"
  },
  {
    "id": 285,
    "name": "ATL Tech Park",
    "lat": 33.9668359,
    "lon": -84.2189073,
    "description": null,
    "address1": "107 Technology Pkwy ",
    "address2": "",
    "city": "Peachtree Corners",
    "state": "Georgia",
    "zip": "30092",
    "country": "United States",
    "notes": null,
    "accessHours": {
      "monday": [],
      "tuesday": [],
      "wednesday": [],
      "thursday": [],
      "friday": [],
      "saturday": [],
      "sunday": []
    },
    "timezone": "US/Eastern"
  },
  {
    "id": 253,
    "name": "Rentifi",
    "lat": 27.9473183,
    "lon": -82.4523419,
    "description": null,
    "address1": "802 East Whiting Street",
    "address2": null,
    "city": "Tampa",
    "state": "Florida",
    "zip": "33602",
    "country": "United States",
    "notes": null,
    "accessHours": {
      "monday": [],
      "tuesday": [],
      "wednesday": [],
      "thursday": [],
      "friday": [],
      "saturday": [],
      "sunday": []
    },
    "timezone": "US/Eastern"
  },
  {
    "id": 692,
    "name": "N Alma School Rd",
    "lat": 33.3257962,
    "lon": -111.8585924,
    "description": null,
    "address1": "1343 N Alma School Rd",
    "address2": null,
    "city": "Chandler",
    "state": "Arizona",
    "zip": "85244",
    "country": "United States",
    "notes": null,
    "accessHours": null,
    "timezone": "MST7MDT"
  },
  {
    "id": 231,
    "name": "SMF-1B",
    "lat": 38.571012,
    "lon": -121.546167,
    "description": null,
    "address1": "1380 Shore Street",
    "address2": null,
    "city": "West Sacramento",
    "state": "California",
    "zip": "95691",
    "country": "United States",
    "notes": null,
    "accessHours": null,
    "timezone": null
  },
  {
    "id": 661,
    "name": "SW 72nd Ave",
    "lat": 25.7269323799,
    "lon": -80.3106646894,
    "description": null,
    "address1": "4671 SW 72nd Ave",
    "address2": null,
    "city": "Miami",
    "state": "Florida",
    "zip": "33155",
    "country": "United States",
    "notes": null,
    "accessHours": null,
    "timezone": "EST5EDT"
  },
  {
    "id": 512,
    "name": "Adams St",
    "lat": 42.2702373,
    "lon": -71.0678053,
    "description": null,
    "address1": "30 Adams St",
    "address2": null,
    "city": "Milton",
    "state": "Massachusetts",
    "zip": "2186",
    "country": "United States",
    "notes": null,
    "accessHours": null,
    "timezone": "EST5EDT"
  },
  {
    "id": 497,
    "name": "Dutch Valley Rd",
    "lat": 33.7918341,
    "lon": -84.3673256,
    "description": null,
    "address1": "595 Dutch Valley Rd NE",
    "address2": null,
    "city": "Atlanta",
    "state": "Georgia",
    "zip": "30324",
    "country": "United States",
    "notes": "In front on Ansley Animal Clinic.",
    "accessHours": null,
    "timezone": "EST5EDT"
  },
  {
    "id": 340,
    "name": "Groundswell",
    "lat": 28.0727753,
    "lon": -80.6008149,
    "description": null,
    "address1": "2412 Irwin Street",
    "address2": "",
    "city": "Melbourne",
    "state": "Florida",
    "zip": "32901",
    "country": "United States",
    "notes": null,
    "accessHours": {
      "monday": [],
      "tuesday": [],
      "wednesday": [],
      "thursday": [],
      "friday": [],
      "saturday": [],
      "sunday": []
    },
    "timezone": "EST"
  },
  {
    "id": 523,
    "name": "Georgia Ave",
    "lat": 35.0487432415,
    "lon": -85.3064715322,
    "description": null,
    "address1": "648 Georgia Avenue",
    "address2": null,
    "city": "Chattanooga",
    "state": "Tennessee",
    "zip": "37403",
    "country": "United States",
    "notes": null,
    "accessHours": null,
    "timezone": "EST5EDT"
  },
  {
    "id": 13,
    "name": "Parkside Tap House",
    "lat": 39.72950379259938,
    "lon": -121.83996692632134,
    "description": null,
    "address1": "115 W 3rd St",
    "address2": null,
    "city": "Chico",
    "state": "California",
    "zip": "95928",
    "country": "United States",
    "notes": "Test",
    "accessHours": {
      "monday": [],
      "tuesday": [],
      "wednesday": [],
      "thursday": [],
      "friday": [],
      "saturday": [],
      "sunday": []
    },
    "timezone": null
  },
  {
    "id": 722,
    "name": "E 13th St N",
    "lat": 37.7098322,
    "lon": -97.2219363,
    "description": null,
    "address1": "10096 E 13th St N",
    "address2": null,
    "city": "Wichita",
    "state": "Kansas",
    "zip": "67206",
    "country": "United States",
    "notes": null,
    "accessHours": null,
    "timezone": "CST6CDT"
  },
  {
    "id": 391,
    "name": "The Ã‰meraude Bakery",
    "lat": 36.231376982266504,
    "lon": -86.49044679332626,
    "description": null,
    "address1": "9904 Lebanon Rd.",
    "address2": "",
    "city": "Mt. Juliet",
    "state": "Tennessee",
    "zip": "37122",
    "country": "United States",
    "notes": "",
    "accessHours": {
      "monday": [],
      "tuesday": [],
      "wednesday": [],
      "thursday": [],
      "friday": [],
      "saturday": [],
      "sunday": []
    },
    "timezone": "US/Central"
  },
  {
    "id": 609,
    "name": "Wynkoop St",
    "lat": 39.7499891123,
    "lon": -105.0029649909,
    "description": null,
    "address1": "1430 Wynkoop St",
    "address2": null,
    "city": "Aurora",
    "state": "Colorado",
    "zip": "80202",
    "country": "United States",
    "notes": null,
    "accessHours": null,
    "timezone": "CST6CDT"
  },
  {
    "id": 416,
    "name": "Buckingham Pkwy",
    "lat": 33.9897637,
    "lon": -118.3807415,
    "description": null,
    "address1": "5752 Buckingham Pkwy",
    "address2": "",
    "city": "Culver City",
    "state": "California",
    "zip": "90230",
    "country": "United States",
    "notes": null,
    "accessHours": {
      "monday": [],
      "tuesday": [],
      "wednesday": [],
      "thursday": [],
      "friday": [],
      "saturday": [],
      "sunday": []
    },
    "timezone": "PST8PDT"
  },
  {
    "id": 414,
    "name": "Westfield - Topanga",
    "lat": 34.188653484547615,
    "lon": -118.60396349771146,
    "description": null,
    "address1": "6600 CA-27",
    "address2": "",
    "city": "Los Angeles",
    "state": "California",
    "zip": "91303",
    "country": "United States",
    "notes": "",
    "accessHours": {
      "monday": [],
      "tuesday": [],
      "wednesday": [],
      "thursday": [],
      "friday": [],
      "saturday": [],
      "sunday": []
    },
    "timezone": "US/Pacific"
  },
  {
    "id": 487,
    "name": "Smith Ln",
    "lat": 38.1634666,
    "lon": -85.8844709,
    "description": null,
    "address1": "6964 Riverport Dr",
    "address2": "",
    "city": "Louisville",
    "state": "Kentucky",
    "zip": "40258",
    "country": "United States",
    "notes": null,
    "accessHours": {
      "monday": [],
      "tuesday": [],
      "wednesday": [],
      "thursday": [],
      "friday": [],
      "saturday": [],
      "sunday": []
    },
    "timezone": "EST"
  },
  {
    "id": 458,
    "name": "Superior Marketplace by Michaels/Target",
    "lat": 39.9570925,
    "lon": -105.1736634,
    "description": null,
    "address1": "400 Marshall Rd",
    "address2": "",
    "city": "Superior",
    "state": "Colorado",
    "zip": "80027",
    "country": "United States",
    "notes": null,
    "accessHours": {
      "monday": [],
      "tuesday": [],
      "wednesday": [],
      "thursday": [],
      "friday": [],
      "saturday": [],
      "sunday": []
    },
    "timezone": "US/Mountain"
  },
  {
    "id": 2,
    "name": "Ray's Liquor",
    "lat": 39.72406954463358,
    "lon": -121.84910005032707,
    "description": "Ray's Liquor",
    "address1": "207 Walnut St",
    "address2": null,
    "city": "Chico",
    "state": "California",
    "zip": "95928",
    "country": "United States",
    "notes": "",
    "accessHours": null,
    "timezone": null
  },
  {
    "id": 699,
    "name": "Interstate 410",
    "lat": 29.5154124737,
    "lon": -98.4538122032,
    "description": null,
    "address1": "1100 NE Interstate 410 Loop",
    "address2": null,
    "city": "San Antonio",
    "state": "Texas",
    "zip": "78209",
    "country": "United States",
    "notes": null,
    "accessHours": {
      "monday": [],
      "tuesday": [],
      "wednesday": [],
      "thursday": [],
      "friday": [],
      "saturday": [],
      "sunday": []
    },
    "timezone": "US/Central"
  },
  {
    "id": 640,
    "name": "Blue Bonnet Blvd",
    "lat": 29.7011637,
    "lon": -95.4410879,
    "description": null,
    "address1": "4015 Blue Bonnet Blvd",
    "address2": null,
    "city": "Houston",
    "state": "Texas",
    "zip": "77025",
    "country": "United States",
    "notes": null,
    "accessHours": null,
    "timezone": "CST6CDT"
  },
  {
    "id": 368,
    "name": "Revel Apartments",
    "lat": 38.9034401,
    "lon": -77.00557909999999,
    "description": null,
    "address1": "1005 First St NE",
    "address2": "",
    "city": "Washington",
    "state": "District of Columbia",
    "zip": "20002",
    "country": "United States",
    "notes": null,
    "accessHours": {
      "monday": [],
      "tuesday": [],
      "wednesday": [],
      "thursday": [],
      "friday": [],
      "saturday": [],
      "sunday": []
    },
    "timezone": "US/Eastern"
  },
  {
    "id": 369,
    "name": "Campus Oaks Apartments",
    "lat": 38.78888420000001,
    "lon": -121.3222729,
    "description": null,
    "address1": "500 Roseville Pkwy",
    "address2": "",
    "city": "Roseville",
    "state": "California",
    "zip": "95747",
    "country": "United States",
    "notes": null,
    "accessHours": {
      "monday": [],
      "tuesday": [],
      "wednesday": [],
      "thursday": [],
      "friday": [],
      "saturday": [],
      "sunday": []
    },
    "timezone": "America/Los_Angeles"
  },
  {
    "id": 441,
    "name": "Marina Village Pkwy",
    "lat": 37.7860163,
    "lon": -122.273165,
    "description": null,
    "address1": "1187 Marina Village Pkwy",
    "address2": "",
    "city": "Alameda",
    "state": "California",
    "zip": "94501",
    "country": "United States",
    "notes": null,
    "accessHours": {
      "monday": [],
      "tuesday": [],
      "wednesday": [],
      "thursday": [],
      "friday": [],
      "saturday": [],
      "sunday": []
    },
    "timezone": "PST8PDT"
  },
  {
    "id": 735,
    "name": "E 15th St",
    "lat": 44.9680777,
    "lon": -93.2648897,
    "description": null,
    "address1": "700 E 15th St",
    "address2": null,
    "city": "Minneapolis",
    "state": "Minnesota",
    "zip": "55404",
    "country": "United States",
    "notes": null,
    "accessHours": null,
    "timezone": "CST6CDT"
  },
  {
    "id": 339,
    "name": "LAX-12",
    "lat": 34.07815559740641,
    "lon": -117.57924726027542,
    "description": null,
    "address1": "9601 Center Ave",
    "address2": "",
    "city": "Rancho Cucamonga",
    "state": "California",
    "zip": "91730",
    "country": "United States",
    "notes": null,
    "accessHours": {
      "monday": [],
      "tuesday": [],
      "wednesday": [],
      "thursday": [],
      "friday": [],
      "saturday": [],
      "sunday": []
    },
    "timezone": "America/Los_Angeles"
  },
  {
    "id": 714,
    "name": "N Church Ave",
    "lat": 32.2242394244,
    "lon": -110.9730786914,
    "description": null,
    "address1": "177 N Church Ave",
    "address2": null,
    "city": "Tucson",
    "state": "Arizona",
    "zip": "85701",
    "country": "United States",
    "notes": null,
    "accessHours": null,
    "timezone": "PST8PDT"
  },
  {
    "id": 600,
    "name": "Ross Ave",
    "lat": 32.8060318,
    "lon": -96.7760853,
    "description": null,
    "address1": "4900 Ross Ave",
    "address2": null,
    "city": "Dallas",
    "state": "Texas",
    "zip": "75206",
    "country": "United States",
    "notes": null,
    "accessHours": null,
    "timezone": "CST6CDT"
  },
  {
    "id": 344,
    "name": "Laundry Centers",
    "lat": 33.77769150965708,
    "lon": -84.4758215546608,
    "description": null,
    "address1": "2707 Donald Lee Hollowell Pkwy",
    "address2": "",
    "city": "Atlanta",
    "state": "Georgia",
    "zip": "30318",
    "country": "United States",
    "notes": null,
    "accessHours": {
      "monday": [],
      "tuesday": [],
      "wednesday": [],
      "thursday": [],
      "friday": [],
      "saturday": [],
      "sunday": []
    },
    "timezone": "US/Eastern"
  },
  {
    "id": 595,
    "name": "West Jefferson",
    "lat": 32.7445336,
    "lon": -96.8441549,
    "description": null,
    "address1": "1401 West Jefferson",
    "address2": null,
    "city": "Dallas",
    "state": "Texas",
    "zip": "75208",
    "country": "United States",
    "notes": null,
    "accessHours": null,
    "timezone": "CST6CDT"
  },
  
  {
    "id": 335,
    "name": "LAX-8",
    "lat": 33.787725362970676,
    "lon": -117.83741313014684,
    "description": null,
    "address1": "1538 E Chapman Ave",
    "address2": "",
    "city": "Orange",
    "state": "California",
    "zip": "92866",
    "country": "United States",
    "notes": null,
    "accessHours": {
      "monday": [],
      "tuesday": [],
      "wednesday": [],
      "thursday": [],
      "friday": [],
      "saturday": [],
      "sunday": []
    },
    "timezone": "America/Los_Angeles"
  },
  {
    "id": 740,
    "name": "Atrium Dr",
    "lat": 35.8154515,
    "lon": -78.7075709,
    "description": null,
    "address1": "2570 Atrium Dr",
    "address2": null,
    "city": "Raleigh",
    "state": "North Carolina",
    "zip": "27607",
    "country": "United States",
    "notes": null,
    "accessHours": {
      "monday": [],
      "tuesday": [],
      "wednesday": [],
      "thursday": [],
      "friday": [],
      "saturday": [],
      "sunday": []
    },
    "timezone": "EST5EDT"
  },
  {
    "id": 428,
    "name": "6th St",
    "lat": 45.4200579,
    "lon": -122.6704348,
    "description": null,
    "address1": "398 6th St",
    "address2": "",
    "city": "Lake Oswego",
    "state": "Oregon",
    "zip": "97034",
    "country": "United States",
    "notes": null,
    "accessHours": {
      "monday": [],
      "tuesday": [],
      "wednesday": [],
      "thursday": [],
      "friday": [],
      "saturday": [],
      "sunday": []
    },
    "timezone": "PST8PDT"
  },
  {
    "id": 637,
    "name": "W Tidwell Rd",
    "lat": 29.852071,
    "lon": -95.5047664,
    "description": null,
    "address1": "7600 W Tidwell Rd",
    "address2": null,
    "city": "Jersey Village",
    "state": "Texas",
    "zip": "77040",
    "country": "United States",
    "notes": null,
    "accessHours": null,
    "timezone": "CST6CDT"
  },
  {
    "id": 603,
    "name": "Cinder Bed Rd",
    "lat": 38.7270641,
    "lon": -77.1881456,
    "description": null,
    "address1": "8500 Cinder Bed Rd,",
    "address2": null,
    "city": " Newington",
    "state": "Virginia",
    "zip": "22122",
    "country": "United States",
    "notes": null,
    "accessHours": null,
    "timezone": "EST5EDT"
  },
  
  {
    "id": 301,
    "name": "West View Mart",
    "lat": 33.7440552,
    "lon": -84.4389875,
    "description": null,
    "address1": "1570 Ralph David Abernathy Blvd",
    "address2": "",
    "city": "Atlanta",
    "state": "Georgia",
    "zip": "30310",
    "country": "United States",
    "notes": null,
    "accessHours": {
      "monday": [],
      "tuesday": [],
      "wednesday": [],
      "thursday": [],
      "friday": [],
      "saturday": [],
      "sunday": []
    },
    "timezone": "US/Eastern"
  },
  {
    "id": 7,
    "name": "Luxer One HQ",
    "lat": 38.6592416182324,
    "lon": -121.38751514790162,
    "description": "Luxer One HQ",
    "address1": "5040 Dudley Blvd",
    "address2": null,
    "city": "McClellan Park",
    "state": "California",
    "zip": "95652",
    "country": "United States",
    "notes": "",
    "accessHours": null,
    "timezone": null
  },
  {
    "id": 651,
    "name": "Marshall St",
    "lat": 34.7423810883,
    "lon": -92.2922050831,
    "description": null,
    "address1": "800 Marshall St ",
    "address2": null,
    "city": "Little Rock",
    "state": "Arkansas",
    "zip": "72202",
    "country": "United States",
    "notes": null,
    "accessHours": null,
    "timezone": "CST6CDT"
  },
  {
    "id": 359,
    "name": "Taylor Station",
    "lat": 30.2520315,
    "lon": -97.6981938,
    "description": null,
    "address1": "5101 E 5th St.",
    "address2": "",
    "city": "Austin",
    "state": "Texas",
    "zip": "78702",
    "country": "United States",
    "notes": null,
    "accessHours": {
      "monday": [],
      "tuesday": [],
      "wednesday": [],
      "thursday": [],
      "friday": [],
      "saturday": [],
      "sunday": []
    },
    "timezone": "CST6CDT"
  },
  {
    "id": 597,
    "name": "Live Oak St",
    "lat": 32.7991833,
    "lon": -96.7763286,
    "description": null,
    "address1": "4502 Live Oak St",
    "address2": null,
    "city": "Dallas",
    "state": "Texas",
    "zip": "75204",
    "country": "United States",
    "notes": null,
    "accessHours": null,
    "timezone": "CST6CDT"
  },
  {
    "id": 503,
    "name": "Cameron Rd",
    "lat": 30.33642141600606,
    "lon": -97.68284904938564,
    "description": null,
    "address1": "8101 Cameron Rd",
    "address2": null,
    "city": "Austin",
    "state": "Texas",
    "zip": "78754",
    "country": "United States",
    "notes": "",
    "accessHours": null,
    "timezone": "CST6CDT"
  },
  {
    "id": 377,
    "name": "Sturgeon GC",
    "lat": 44.84856277958336,
    "lon": -87.3602711717993,
    "description": null,
    "address1": "1437 Egg Harbor Rd ",
    "address2": "",
    "city": "Sturgeon Bay",
    "state": "Wisconsin",
    "zip": "54235",
    "country": "United States",
    "notes": null,
    "accessHours": {
      "monday": [],
      "tuesday": [],
      "wednesday": [],
      "thursday": [],
      "friday": [],
      "saturday": [],
      "sunday": []
    },
    "timezone": "US/Central"
  },
  {
    "id": 730,
    "name": "TYS - Weisgarber",
    "lat": 35.94670769645989,
    "lon": -84.01429372720608,
    "description": null,
    "address1": "1225 Weisgarber Rd",
    "address2": null,
    "city": "Knoxville",
    "state": "Tennessee",
    "zip": "37909",
    "country": "United States",
    "notes": null,
    "accessHours": {
      "monday": [],
      "tuesday": [],
      "wednesday": [],
      "thursday": [],
      "friday": [],
      "saturday": [],
      "sunday": []
    },
    "timezone": "CST6CDT"
  },
  {
    "id": 453,
    "name": "Zink Lake",
    "lat": 36.1280747,
    "lon": -95.9951664,
    "description": null,
    "address1": "428 W 23rd Streeet",
    "address2": "",
    "city": "Tulsa",
    "state": "Oklahoma",
    "zip": "74107",
    "country": "United States",
    "notes": null,
    "accessHours": {
      "monday": [],
      "tuesday": [],
      "wednesday": [],
      "thursday": [],
      "friday": [],
      "saturday": [],
      "sunday": []
    },
    "timezone": "US/Central"
  },
  {
    "id": 432,
    "name": "Euclid Ave",
    "lat": 32.7072531,
    "lon": -117.0870332,
    "description": null,
    "address1": "254 Euclid Ave",
    "address2": "",
    "city": "San Diego",
    "state": "California",
    "zip": "92114",
    "country": "United States",
    "notes": null,
    "accessHours": {
      "monday": [],
      "tuesday": [],
      "wednesday": [],
      "thursday": [],
      "friday": [],
      "saturday": [],
      "sunday": []
    },
    "timezone": "PST8PDT"
  },
  {
    "id": 611,
    "name": "E Mineral Cir",
    "lat": 39.575729585538156,
    "lon": -104.88427070960395,
    "description": null,
    "address1": "9050 E Mineral Circle",
    "address2": null,
    "city": "Centennial",
    "state": "Colorado",
    "zip": "80112",
    "country": "United States",
    "notes": "",
    "accessHours": {
      "monday": [],
      "tuesday": [],
      "wednesday": [],
      "thursday": [],
      "friday": [],
      "saturday": [],
      "sunday": []
    },
    "timezone": "CST6CDT"
  },
  {
    "id": 709,
    "name": "S West Shore Blvd",
    "lat": 27.8932057,
    "lon": -82.5271112,
    "description": null,
    "address1": "4911 S West Shore Blvd",
    "address2": null,
    "city": "Tampa ",
    "state": "Florida",
    "zip": "33602",
    "country": "United States",
    "notes": null,
    "accessHours": null,
    "timezone": "EST5EDT"
  },
  {
    "id": 501,
    "name": "Park W Dr",
    "lat": 33.417295,
    "lon": -84.1622342,
    "description": null,
    "address1": "109 Park W Dr",
    "address2": null,
    "city": "McDonough",
    "state": "Georgia",
    "zip": "30253",
    "country": "United States",
    "notes": null,
    "accessHours": null,
    "timezone": "EST5EDT"
  },
  {
    "id": 621,
    "name": "DSM - Merle Hay",
    "lat": 41.6457361,
    "lon": -93.6974505,
    "description": null,
    "address1": "4685 Merle Hay Rd",
    "address2": null,
    "city": "Des Moines",
    "state": "Iowa",
    "zip": "50322",
    "country": "United States",
    "notes": null,
    "accessHours": {
      "monday": [],
      "tuesday": [],
      "wednesday": [],
      "thursday": [],
      "friday": [],
      "saturday": [],
      "sunday": []
    },
    "timezone": "CST6CDT"
  },
  {
    "id": 750,
    "name": " Winkler Rd",
    "lat": 26.5441763,
    "lon": -81.89790409999999,
    "description": null,
    "address1": "6719 Winkler Rd",
    "address2": "",
    "city": "Fort Myers",
    "state": "Florida",
    "zip": "33919",
    "country": "United States",
    "notes": null,
    "accessHours": {
      "monday": [],
      "tuesday": [],
      "wednesday": [],
      "thursday": [],
      "friday": [],
      "saturday": [],
      "sunday": []
    },
    "timezone": "US/Eastern"
  },
  
  {
    "id": 727,
    "name": "SW Blvd",
    "lat": 39.0844946987,
    "lon": -94.5946326086,
    "description": null,
    "address1": "834 Southwest Blvd",
    "address2": null,
    "city": "Kansas City",
    "state": "Missouri",
    "zip": "64108",
    "country": "United States",
    "notes": null,
    "accessHours": null,
    "timezone": "CST6CDT"
  },
  {
    "id": 517,
    "name": "Washington St",
    "lat": 42.3649919581,
    "lon": -71.0581150614,
    "description": null,
    "address1": "77 N Washington St",
    "address2": null,
    "city": "Boston",
    "state": "Massachusetts",
    "zip": "2114",
    "country": "United States",
    "notes": null,
    "accessHours": null,
    "timezone": "EST5EDT"
  },
  {
    "id": 110,
    "name": "SMF-14",
    "lat": 38.7585661,
    "lon": -121.31006,
    "description": null,
    "address1": "4998 Foothills Blvd",
    "address2": null,
    "city": "Roseville",
    "state": "California",
    "zip": "95747",
    "country": "United States",
    "notes": null,
    "accessHours": null,
    "timezone": null
  },
  {
    "id": 496,
    "name": "Clark St SW",
    "lat": 33.5975344348,
    "lon": -83.8604750741,
    "description": null,
    "address1": "1144 Clark St SW",
    "address2": null,
    "city": "Covington",
    "state": "Georgia",
    "zip": "30080",
    "country": "United States",
    "notes": null,
    "accessHours": null,
    "timezone": "EST5EDT"
  },
  {
    "id": 203,
    "name": "AUS-3",
    "lat": 30.262629958920236,
    "lon": -97.74282895281695,
    "description": null,
    "address1": "98 SAN JACINTO BLVD",
    "address2": null,
    "city": "Austin",
    "state": "Texas",
    "zip": "78701",
    "country": "United States",
    "notes": "",
    "accessHours": null,
    "timezone": null
  },
  
  {
    "id": 228,
    "name": "SMF-24",
    "lat": 38.56817626953125,
    "lon": -121.30736078485707,
    "description": null,
    "address1": "10365 OLD PLACERVILLE RD",
    "address2": null,
    "city": "Sacramento",
    "state": "California",
    "zip": "95827",
    "country": "United States",
    "notes": "",
    "accessHours": null,
    "timezone": null
  },
  {
    "id": 718,
    "name": "E Williams Cir",
    "lat": 32.220450421,
    "lon": -110.882132771,
    "description": null,
    "address1": "5210 E Williams Circle",
    "address2": null,
    "city": "Tucson",
    "state": "Arizona",
    "zip": "85711",
    "country": "United States",
    "notes": null,
    "accessHours": null,
    "timezone": "PST8PDT"
  },
  {
    "id": 485,
    "name": "N New Jersey St",
    "lat": 39.7681436,
    "lon": -86.1505851,
    "description": null,
    "address1": "91 N New Jersey St",
    "address2": "",
    "city": "Indianapolis",
    "state": "Indiana",
    "zip": "46204",
    "country": "United States",
    "notes": null,
    "accessHours": {
      "monday": [],
      "tuesday": [],
      "wednesday": [],
      "thursday": [],
      "friday": [],
      "saturday": [],
      "sunday": []
    },
    "timezone": "EST"
  },
  {
    "id": 667,
    "name": "Albion St",
    "lat": 36.1660906,
    "lon": -86.8067056,
    "description": null,
    "address1": "1810 Albion St",
    "address2": null,
    "city": "Nashville",
    "state": "Tennessee",
    "zip": "37208",
    "country": "United States",
    "notes": null,
    "accessHours": null,
    "timezone": "EST5EDT"
  },
  {
    "id": 668,
    "name": "Elysian Fields Ave",
    "lat": 29.9686832,
    "lon": -90.0572584,
    "description": null,
    "address1": "1100 Elysian Fields Ave",
    "address2": null,
    "city": "New Orleans",
    "state": "Louisiana",
    "zip": "70117",
    "country": "United States",
    "notes": null,
    "accessHours": null,
    "timezone": "CST6CDT"
  },
  {
    "id": 294,
    "name": "UF - Reserved",
    "lat": 33.7687028,
    "lon": -84.3607565,
    "description": null,
    "address1": "828 Ralph McGill Blvd NE w4-1",
    "address2": "",
    "city": "Atlanta",
    "state": "Georgia",
    "zip": "30306",
    "country": "United States",
    "notes": null,
    "accessHours": {
      "monday": [],
      "tuesday": [],
      "wednesday": [],
      "thursday": [],
      "friday": [],
      "saturday": [],
      "sunday": []
    },
    "timezone": "US/Eastern"
  },
  {
    "id": 708,
    "name": "E 8th Ave",
    "lat": 27.9612991086,
    "lon": -82.435216938,
    "description": null,
    "address1": "2102 E 8th Ave",
    "address2": null,
    "city": "Tampa ",
    "state": "Florida",
    "zip": "33605",
    "country": "United States",
    "notes": null,
    "accessHours": null,
    "timezone": "EST5EDT"
  },
  {
    "id": 455,
    "name": "Shops at Quail Creek",
    "lat": 39.94400535021535,
    "lon": -105.01313268582541,
    "description": null,
    "address1": "2205 W 136th Ave",
    "address2": "Ste 106",
    "city": "Westminster",
    "state": "Colorado",
    "zip": "80023",
    "country": "United States",
    "notes": null,
    "accessHours": {
      "monday": [],
      "tuesday": [],
      "wednesday": [],
      "thursday": [],
      "friday": [],
      "saturday": [],
      "sunday": []
    },
    "timezone": "US/Mountain"
  },
  {
    "id": 370,
    "name": "College Town Apartments",
    "lat": 38.5549682,
    "lon": -121.4134887,
    "description": null,
    "address1": "7725 College Town Dr",
    "address2": "",
    "city": "Sacramento",
    "state": "California",
    "zip": "95826",
    "country": "United States",
    "notes": null,
    "accessHours": {
      "monday": [],
      "tuesday": [],
      "wednesday": [],
      "thursday": [],
      "friday": [],
      "saturday": [],
      "sunday": []
    },
    "timezone": "America/Los_Angeles"
  },
  {
    "id": 68,
    "name": "QA-Scott",
    "lat": 38.659211022710764,
    "lon": -121.38785314821048,
    "description": null,
    "address1": "5040 Dudley Blvd",
    "address2": null,
    "city": "McClellan Park",
    "state": "California",
    "zip": "95652",
    "country": "United States",
    "notes": null,
    "accessHours": {
      "monday": [],
      "tuesday": [],
      "wednesday": [],
      "thursday": [],
      "friday": [],
      "saturday": [],
      "sunday": []
    },
    "timezone": null
  },
  {
    "id": 684,
    "name": "E Washington St",
    "lat": 28.5436344,
    "lon": -81.3694531,
    "description": null,
    "address1": "611 E Washington St",
    "address2": null,
    "city": "Orlando",
    "state": "Florida",
    "zip": "32801",
    "country": "United States",
    "notes": null,
    "accessHours": null,
    "timezone": "EST5EDT"
  },
  {
    "id": 481,
    "name": "Smith Ln",
    "lat": 39.9707533,
    "lon": -85.9898953,
    "description": null,
    "address1": "10029 126th St",
    "address2": "",
    "city": "Fishers",
    "state": "Indiana",
    "zip": "46038",
    "country": "United States",
    "notes": null,
    "accessHours": {
      "monday": [],
      "tuesday": [],
      "wednesday": [],
      "thursday": [],
      "friday": [],
      "saturday": [],
      "sunday": []
    },
    "timezone": "EST"
  },
  {
    "id": 713,
    "name": "Tampa W Blvd",
    "lat": 28.0194985537,
    "lon": -82.532532783,
    "description": null,
    "address1": "5204 Tampa W Blvd",
    "address2": null,
    "city": "Tampa ",
    "state": "Florida",
    "zip": "33634",
    "country": "United States",
    "notes": null,
    "accessHours": null,
    "timezone": "EST5EDT"
  },
  
  {
    "id": 645,
    "name": "US-1",
    "lat": 26.914451186249007,
    "lon": -80.07048936864716,
    "description": null,
    "address1": "2101 US-1",
    "address2": null,
    "city": "Jupiter",
    "state": "Florida",
    "zip": "33477",
    "country": "United States",
    "notes": null,
    "accessHours": {
      "monday": [],
      "tuesday": [],
      "wednesday": [],
      "thursday": [],
      "friday": [],
      "saturday": [],
      "sunday": []
    },
    "timezone": "EST5EDT"
  },
  {
    "id": 396,
    "name": "101 W Friendly Ave",
    "lat": 36.0732954,
    "lon": -79.7905779,
    "description": null,
    "address1": " 101 W Friendly Ave ",
    "address2": "",
    "city": "Greensboro",
    "state": "North Carolina",
    "zip": "27401",
    "country": "United States",
    "notes": null,
    "accessHours": {
      "monday": [],
      "tuesday": [],
      "wednesday": [],
      "thursday": [],
      "friday": [],
      "saturday": [],
      "sunday": []
    },
    "timezone": "US/Eastern"
  },
  {
    "id": 607,
    "name": "Georgia Ave NW",
    "lat": 38.91761693115648,
    "lon": -77.02093209217334,
    "description": null,
    "address1": "2041 Georgia Ave NW",
    "address2": null,
    "city": "DC",
    "state": "District of Columbia",
    "zip": "20060",
    "country": "United States",
    "notes": null,
    "accessHours": {
      "monday": [],
      "tuesday": [],
      "wednesday": [],
      "thursday": [],
      "friday": [],
      "saturday": [],
      "sunday": []
    },
    "timezone": "EST5EDT"
  },
  {
    "id": 438,
    "name": "Dolores St",
    "lat": 37.7648944,
    "lon": -122.426087,
    "description": null,
    "address1": "299 DOLORES ST",
    "address2": "",
    "city": "San Francisco",
    "state": "California",
    "zip": "94103",
    "country": "United States",
    "notes": null,
    "accessHours": {
      "monday": [],
      "tuesday": [],
      "wednesday": [],
      "thursday": [],
      "friday": [],
      "saturday": [],
      "sunday": []
    },
    "timezone": "PST8PDT"
  },
  {
    "id": 701,
    "name": "W Glenview Dr",
    "lat": 29.484589,
    "lon": -98.560792,
    "description": null,
    "address1": "16 W Glenview Dr",
    "address2": null,
    "city": "San Antonio",
    "state": "Texas",
    "zip": "78228",
    "country": "United States",
    "notes": null,
    "accessHours": null,
    "timezone": "CST6CDT"
  },
  {
    "id": 633,
    "name": "Memorial Dr",
    "lat": 29.7611249,
    "lon": -95.4194349,
    "description": null,
    "address1": "5757 Memorial Dr",
    "address2": null,
    "city": "Houston",
    "state": "Texas",
    "zip": "77007",
    "country": "United States",
    "notes": null,
    "accessHours": null,
    "timezone": "CST6CDT"
  },
  {
    "id": 382,
    "name": "Karrington Lab #2",
    "lat": 39.1842014,
    "lon": -76.8016001,
    "description": null,
    "address1": "6751 Columbia Gateway Dr",
    "address2": "",
    "city": "Columbia",
    "state": "Maryland",
    "zip": "21046",
    "country": "United States",
    "notes": null,
    "accessHours": {
      "monday": [],
      "tuesday": [],
      "wednesday": [],
      "thursday": [],
      "friday": [],
      "saturday": [],
      "sunday": []
    },
    "timezone": "US/Eastern"
  },
  {
    "id": 511,
    "name": "1st St",
    "lat": 42.3644025322,
    "lon": -71.0784781958,
    "description": null,
    "address1": "215 1st Street",
    "address2": null,
    "city": "Boston",
    "state": "Massachusetts",
    "zip": "2142",
    "country": "United States",
    "notes": null,
    "accessHours": null,
    "timezone": "EST5EDT"
  },
  
  {
    "id": 514,
    "name": "Central Ave",
    "lat": 42.4643233,
    "lon": -70.9476079,
    "description": null,
    "address1": "63 Central Ave",
    "address2": null,
    "city": "Lynn",
    "state": "Massachusetts",
    "zip": "1901",
    "country": "United States",
    "notes": null,
    "accessHours": null,
    "timezone": "EST5EDT"
  },
  {
    "id": 389,
    "name": "17th & Riverside",
    "lat": 36.1361133,
    "lon": -95.992785,
    "description": null,
    "address1": "1720 Riverside Drive",
    "address2": "",
    "city": "Tulsa",
    "state": "Oklahoma",
    "zip": "74119",
    "country": "United States",
    "notes": null,
    "accessHours": {
      "monday": [],
      "tuesday": [],
      "wednesday": [],
      "thursday": [],
      "friday": [],
      "saturday": [],
      "sunday": []
    },
    "timezone": "US/Central"
  },
  {
    "id": 712,
    "name": "Cluster Oak Ct",
    "lat": 28.02317,
    "lon": -82.52167,
    "description": null,
    "address1": "4600 Cluster Oak Ct",
    "address2": null,
    "city": "Tampa ",
    "state": "Florida",
    "zip": "33614",
    "country": "United States",
    "notes": null,
    "accessHours": null,
    "timezone": "EST5EDT"
  },
  {
    "id": 276,
    "name": "N Inno Center 2",
    "lat": 38.58060299324327,
    "lon": -90.2401511841443,
    "description": null,
    "address1": "3207 Meramec Street",
    "address2": "",
    "city": "St. Louis",
    "state": "Missouri",
    "zip": "63118",
    "country": "United States",
    "notes": null,
    "accessHours": {
      "monday": [],
      "tuesday": [],
      "wednesday": [],
      "thursday": [],
      "friday": [],
      "saturday": [],
      "sunday": []
    },
    "timezone": "US/Eastern"
  },
  {
    "id": 330,
    "name": "LAX-3",
    "lat": 34.08182850189923,
    "lon": -118.3235381873476,
    "description": null,
    "address1": "601 N Larchmont Blvd",
    "address2": "",
    "city": "Los Angeles",
    "state": "California",
    "zip": "90038",
    "country": "United States",
    "notes": null,
    "accessHours": {
      "monday": [],
      "tuesday": [],
      "wednesday": [],
      "thursday": [],
      "friday": [],
      "saturday": [],
      "sunday": []
    },
    "timezone": "America/Los_Angeles"
  },
  {
    "id": 513,
    "name": "Canal St",
    "lat": 42.363560947,
    "lon": -71.0592641802,
    "description": null,
    "address1": "48 Canal Street",
    "address2": null,
    "city": "Boston",
    "state": "Massachusetts",
    "zip": "2114",
    "country": "United States",
    "notes": null,
    "accessHours": null,
    "timezone": "EST5EDT"
  },
  {
    "id": 473,
    "name": "Harrison Ave",
    "lat": 39.1562789,
    "lon": -84.6113163,
    "description": null,
    "address1": "3703 Harrison Ave",
    "address2": "",
    "city": "Cheviot",
    "state": "Ohio",
    "zip": "45211",
    "country": "United States",
    "notes": null,
    "accessHours": {
      "monday": [],
      "tuesday": [],
      "wednesday": [],
      "thursday": [],
      "friday": [],
      "saturday": [],
      "sunday": []
    },
    "timezone": "EST"
  },
  {
    "id": 646,
    "name": "American Pacific Dr",
    "lat": 36.0418354,
    "lon": -115.0278644,
    "description": null,
    "address1": "980 American Pacific Dr",
    "address2": null,
    "city": "Henderson",
    "state": "Nevada",
    "zip": "89014",
    "country": "United States",
    "notes": null,
    "accessHours": null,
    "timezone": "PST8PDT"
  },
  {
    "id": 451,
    "name": "Cain's Ballroom (Box Office)",
    "lat": 36.16096539999999,
    "lon": -95.9946396,
    "description": null,
    "address1": "423 N. Main Street",
    "address2": "",
    "city": "Tulsa",
    "state": "Oklahoma",
    "zip": "74103",
    "country": "United States",
    "notes": null,
    "accessHours": {
      "monday": [],
      "tuesday": [],
      "wednesday": [],
      "thursday": [],
      "friday": [],
      "saturday": [],
      "sunday": []
    },
    "timezone": "US/Central"
  },
  {
    "id": 379,
    "name": "UCLA University Apts",
    "lat": 34.02111589479983,
    "lon": -118.4270744803122,
    "description": null,
    "address1": "3200 Sawtelle Blvd",
    "address2": "",
    "city": "Los Angeles",
    "state": "California",
    "zip": "90066",
    "country": "United States",
    "notes": null,
    "accessHours": {
      "monday": [],
      "tuesday": [],
      "wednesday": [],
      "thursday": [],
      "friday": [],
      "saturday": [],
      "sunday": []
    },
    "timezone": "US/Pacific"
  },
  {
    "id": 323,
    "name": "South Gate",
    "lat": 39.599812397891796,
    "lon": -104.89369510796928,
    "description": null,
    "address1": "6453 South Fiddlers Green Circle",
    "address2": "",
    "city": "Greenwood Village",
    "state": "Colorado",
    "zip": "80111",
    "country": "United States",
    "notes": null,
    "accessHours": {
      "monday": [],
      "tuesday": [],
      "wednesday": [],
      "thursday": [],
      "friday": [],
      "saturday": [],
      "sunday": []
    },
    "timezone": "America/Denver"
  },
  {
    "id": 320,
    "name": "Depew",
    "lat": 42.9183082,
    "lon": -78.69734869999999,
    "description": null,
    "address1": "5990 Transit Rd",
    "address2": "",
    "city": "Depew",
    "state": "New York",
    "zip": "14043",
    "country": "United States",
    "notes": null,
    "accessHours": {
      "monday": [],
      "tuesday": [],
      "wednesday": [],
      "thursday": [],
      "friday": [],
      "saturday": [],
      "sunday": []
    },
    "timezone": "America/New_York"
  },
  {
    "id": 337,
    "name": "LAX-10",
    "lat": 33.625795605477016,
    "lon": -117.71636650365674,
    "description": null,
    "address1": "23161 Lake Center Dr",
    "address2": "",
    "city": "Lake Forest",
    "state": "California",
    "zip": "92630",
    "country": "United States",
    "notes": null,
    "accessHours": {
      "monday": [],
      "tuesday": [],
      "wednesday": [],
      "thursday": [],
      "friday": [],
      "saturday": [],
      "sunday": []
    },
    "timezone": "America/Los_Angeles"
  },
  {
    "id": 348,
    "name": "Karrington Lab",
    "lat": 39.01812169999999,
    "lon": -76.75972709999999,
    "description": null,
    "address1": "14000 Jericho Park Road",
    "address2": "",
    "city": "Bowie",
    "state": "Maryland",
    "zip": "20715",
    "country": "United States",
    "notes": null,
    "accessHours": {
      "monday": [],
      "tuesday": [],
      "wednesday": [],
      "thursday": [],
      "friday": [],
      "saturday": [],
      "sunday": []
    },
    "timezone": "US/Eastern"
  },
  {
    "id": 375,
    "name": "AVENU Meyran",
    "lat": 40.4406772,
    "lon": -79.95865719999999,
    "description": null,
    "address1": "122 Meyran Ave",
    "address2": "",
    "city": "Pittsburgh",
    "state": "Pennsylvania",
    "zip": "15213",
    "country": "United States",
    "notes": null,
    "accessHours": {
      "monday": [],
      "tuesday": [],
      "wednesday": [],
      "thursday": [],
      "friday": [],
      "saturday": [],
      "sunday": []
    },
    "timezone": "US/Eastern"
  },
  {
    "id": 114,
    "name": "SMF-15",
    "lat": 38.408050537109375,
    "lon": -121.47656110017437,
    "description": null,
    "address1": "2730 ELK GROVE BLVD",
    "address2": null,
    "city": "Elk Grove",
    "state": "California",
    "zip": "95758",
    "country": "United States",
    "notes": "",
    "accessHours": null,
    "timezone": null
  },
  {
    "id": 399,
    "name": "Morrison Blvd",
    "lat": 35.1491794,
    "lon": -80.82579539999999,
    "description": null,
    "address1": "2688 Coltsgate Rd ",
    "address2": "",
    "city": "Charlotte",
    "state": "North Carolina",
    "zip": "28211",
    "country": "United States",
    "notes": null,
    "accessHours": {
      "monday": [],
      "tuesday": [],
      "wednesday": [],
      "thursday": [],
      "friday": [],
      "saturday": [],
      "sunday": []
    },
    "timezone": "US/Eastern"
  },
  {
    "id": 729,
    "name": "S Independence St",
    "lat": 38.6544382,
    "lon": -94.348771,
    "description": null,
    "address1": "112 S Independence St",
    "address2": null,
    "city": "Harrisonville",
    "state": "Missouri",
    "zip": "64701",
    "country": "United States",
    "notes": null,
    "accessHours": {
      "monday": [],
      "tuesday": [],
      "wednesday": [],
      "thursday": [],
      "friday": [],
      "saturday": [],
      "sunday": []
    },
    "timezone": "CST6CDT"
  },
  {
    "id": 680,
    "name": "NE 23rd St",
    "lat": 35.4929981066,
    "lon": -97.4843568309,
    "description": null,
    "address1": "1528 NE 23rd Street",
    "address2": null,
    "city": "Oklahoma City",
    "state": "Oklahoma",
    "zip": "73111",
    "country": "United States",
    "notes": null,
    "accessHours": null,
    "timezone": "CST6CDT"
  },
  {
    "id": 518,
    "name": "Main St",
    "lat": 30.4515651,
    "lon": -91.1834646,
    "description": null,
    "address1": "701 Main St",
    "address2": null,
    "city": "Baton Rouge",
    "state": "Louisiana",
    "zip": "70802",
    "country": "United States",
    "notes": null,
    "accessHours": null,
    "timezone": "CST6CDT"
  },
  {
    "id": 613,
    "name": "N Broadway",
    "lat": 39.7420766093,
    "lon": -104.9873316758,
    "description": null,
    "address1": "1600 N Broadway",
    "address2": null,
    "city": "Denver",
    "state": "Colorado",
    "zip": "80205",
    "country": "United States",
    "notes": null,
    "accessHours": null,
    "timezone": "CST6CDT"
  },
  {
    "id": 737,
    "name": "S 300 W",
    "lat": 40.7161443,
    "lon": -111.8998629,
    "description": null,
    "address1": "2550 S 300 W",
    "address2": null,
    "city": "Salt Lake City",
    "state": "Utah",
    "zip": "84115",
    "country": "United States",
    "notes": "",
    "accessHours": {
      "monday": [],
      "tuesday": [],
      "wednesday": [],
      "thursday": [],
      "friday": [],
      "saturday": [],
      "sunday": []
    },
    "timezone": "US/Mountain"
  },
  {
    "id": 589,
    "name": "Jerry St",
    "lat": 39.37273368486284,
    "lon": -104.86113032765022,
    "description": null,
    "address1": "309 Jerry St",
    "address2": null,
    "city": "Castle Rock",
    "state": "Colorado",
    "zip": "80104",
    "country": "United States",
    "notes": "",
    "accessHours": null,
    "timezone": "MST7MDT"
  },
  {
    "id": 689,
    "name": "Chemical Rd",
    "lat": 40.1003196009,
    "lon": -75.2936995453,
    "description": null,
    "address1": "2053 Chemical Rd",
    "address2": null,
    "city": "Philadelphia",
    "state": "Pennsylvania",
    "zip": "19462",
    "country": "United States",
    "notes": null,
    "accessHours": null,
    "timezone": "EST5EDT"
  },
  {
    "id": 127,
    "name": "SMF-16B",
    "lat": 38.496145,
    "lon": -121.098567,
    "description": null,
    "address1": "7175 MURIETA DRIVE",
    "address2": null,
    "city": "Rancho Murieta",
    "state": "California",
    "zip": "95683",
    "country": "United States",
    "notes": null,
    "accessHours": null,
    "timezone": null
  },
  {
    "id": 124,
    "name": "The Reserve",
    "lat": 34.18182,
    "lon": -118.60885,
    "description": null,
    "address1": "6110 Nevada Ave",
    "address2": null,
    "city": "Los Angeles",
    "state": "California",
    "zip": "91367",
    "country": "United States",
    "notes": null,
    "accessHours": null,
    "timezone": null
  },
  {
    "id": 452,
    "name": "30th & Riverside",
    "lat": 36.1193546,
    "lon": -95.98528069999999,
    "description": null,
    "address1": "3098 Riverside Drive",
    "address2": "",
    "city": "Tulsa",
    "state": "Oklahoma",
    "zip": "74114",
    "country": "United States",
    "notes": null,
    "accessHours": {
      "monday": [],
      "tuesday": [],
      "wednesday": [],
      "thursday": [],
      "friday": [],
      "saturday": [],
      "sunday": []
    },
    "timezone": "US/Central"
  },
  {
    "id": 615,
    "name": "S Oneida St",
    "lat": 39.6774602642,
    "lon": -104.9086036749,
    "description": null,
    "address1": "2121 S Oneida St",
    "address2": null,
    "city": "Denver",
    "state": "Colorado",
    "zip": "80224",
    "country": "United States",
    "notes": null,
    "accessHours": {
      "monday": [],
      "tuesday": [],
      "wednesday": [],
      "thursday": [],
      "friday": [],
      "saturday": [],
      "sunday": []
    },
    "timezone": "US/Central"
  },
  {
    "id": 693,
    "name": "E Roeser Rd",
    "lat": 33.3997917,
    "lon": -111.9963091,
    "description": null,
    "address1": "3927 E Roeser Rd",
    "address2": null,
    "city": "Phoenix",
    "state": "Arizona",
    "zip": "85040",
    "country": "United States",
    "notes": null,
    "accessHours": null,
    "timezone": "MST7MDT"
  },
  {
    "id": 522,
    "name": "Lindsay St",
    "lat": 35.04884266453113,
    "lon": -85.30475570223429,
    "description": null,
    "address1": "615 Lindsay St",
    "address2": null,
    "city": "Chattanooga",
    "state": "Tennessee",
    "zip": "37403",
    "country": "United States",
    "notes": "",
    "accessHours": {
      "monday": [],
      "tuesday": [],
      "wednesday": [],
      "thursday": [],
      "friday": [],
      "saturday": [],
      "sunday": []
    },
    "timezone": "EST5EDT"
  },
  {
    "id": 674,
    "name": "Jay St",
    "lat": 40.704079,
    "lon": -73.987083,
    "description": null,
    "address1": "20 Jay St",
    "address2": null,
    "city": "Brooklyn",
    "state": "New York",
    "zip": "11201",
    "country": "United States",
    "notes": null,
    "accessHours": {
      "monday": [],
      "tuesday": [],
      "wednesday": [],
      "thursday": [],
      "friday": [],
      "saturday": [],
      "sunday": []
    },
    "timezone": "US/Eastern"
  },
  
  {
    "id": 682,
    "name": "Dodge St",
    "lat": 41.2596286917,
    "lon": -95.9439146672,
    "description": null,
    "address1": "2027 Dodge Street",
    "address2": null,
    "city": "Omaha",
    "state": "Nebraska",
    "zip": "68102",
    "country": "United States",
    "notes": null,
    "accessHours": null,
    "timezone": "CST6CDT"
  },
  {
    "id": 329,
    "name": "LAX-2",
    "lat": 34.20097472789591,
    "lon": -118.49515751987936,
    "description": null,
    "address1": "16600 Sherman Way",
    "address2": "",
    "city": "Los Angeles",
    "state": "California",
    "zip": "91406",
    "country": "United States",
    "notes": null,
    "accessHours": {
      "monday": [],
      "tuesday": [],
      "wednesday": [],
      "thursday": [],
      "friday": [],
      "saturday": [],
      "sunday": []
    },
    "timezone": "America/Los_Angeles"
  },
  {
    "id": 630,
    "name": "New Park Ave",
    "lat": 41.7523735248,
    "lon": -72.7096708586,
    "description": null,
    "address1": "151 New Park Ave",
    "address2": null,
    "city": "Hartford",
    "state": "Connecticut",
    "zip": "6106",
    "country": "United States",
    "notes": null,
    "accessHours": null,
    "timezone": "EST5EDT"
  },
  {
    "id": 401,
    "name": "Lower Mall Dr",
    "lat": 36.0920972,
    "lon": -80.2832836,
    "description": null,
    "address1": "380 Lower Mall Dr",
    "address2": "",
    "city": "Winston-Salem",
    "state": "North Carolina",
    "zip": "27103",
    "country": "United States",
    "notes": null,
    "accessHours": {
      "monday": [],
      "tuesday": [],
      "wednesday": [],
      "thursday": [],
      "friday": [],
      "saturday": [],
      "sunday": []
    },
    "timezone": "US/Eastern"
  },
  {
    "id": 715,
    "name": "E University Blvd",
    "lat": 32.2315416403,
    "lon": -110.9716082143,
    "description": null,
    "address1": "10 E University Blvd",
    "address2": null,
    "city": "Tucson",
    "state": "Arizona",
    "zip": "85705",
    "country": "United States",
    "notes": null,
    "accessHours": null,
    "timezone": "PST8PDT"
  },
  {
    "id": 601,
    "name": "Ferguson Rd",
    "lat": 32.8219721,
    "lon": -96.678334,
    "description": null,
    "address1": "9800 Ferguson Rd",
    "address2": null,
    "city": "Dallas",
    "state": "Texas",
    "zip": "75228",
    "country": "United States",
    "notes": null,
    "accessHours": null,
    "timezone": "CST6CDT"
  },
  {
    "id": 590,
    "name": "S 25th St",
    "lat": 38.8469019371812,
    "lon": -104.86302246577846,
    "description": null,
    "address1": "109 S 25th St",
    "address2": null,
    "city": "Colorado Springs",
    "state": "Colorado",
    "zip": "80904",
    "country": "United States",
    "notes": "",
    "accessHours": null,
    "timezone": "MST7MDT"
  },
  {
    "id": 763,
    "name": "Hilton Melobourne",
    "lat": 28.265539233441515,
    "lon": -80.73406794428479,
    "description": null,
    "address1": "5487 Onate Lane",
    "address2": "",
    "city": "Rockledge",
    "state": "Florida",
    "zip": "32955",
    "country": "United States",
    "notes": "",
    "accessHours": {
      "monday": [],
      "tuesday": [],
      "wednesday": [],
      "thursday": [],
      "friday": [],
      "saturday": [],
      "sunday": []
    },
    "timezone": "US/Eastern"
  },
  {
    "id": 659,
    "name": "12th st ",
    "lat": 25.7812257,
    "lon": -80.31426499999999,
    "description": null,
    "address1": "7270 NW 12th St",
    "address2": null,
    "city": "Miami",
    "state": "Florida",
    "zip": "33126",
    "country": "United States",
    "notes": null,
    "accessHours": {
      "monday": [],
      "tuesday": [],
      "wednesday": [],
      "thursday": [],
      "friday": [],
      "saturday": [],
      "sunday": []
    },
    "timezone": "EST5EDT"
  },
  {
    "id": 376,
    "name": "Appleton PK",
    "lat": 44.24345714958011,
    "lon": -88.37867838509013,
    "description": null,
    "address1": "1717 E Calumet St unit C ",
    "address2": "",
    "city": "Appleton",
    "state": "Wisconsin",
    "zip": "54915",
    "country": "United States",
    "notes": null,
    "accessHours": {
      "monday": [],
      "tuesday": [],
      "wednesday": [],
      "thursday": [],
      "friday": [],
      "saturday": [],
      "sunday": []
    },
    "timezone": "US/Central"
  },
  {
    "id": 676,
    "name": "Hudson Pl",
    "lat": 40.73586,
    "lon": -74.02944,
    "description": null,
    "address1": "39 Hudson Pl",
    "address2": null,
    "city": "New Jersey",
    "state": "New Jersey",
    "zip": "7030",
    "country": "United States",
    "notes": null,
    "accessHours": null,
    "timezone": "EST5EDT"
  },
  {
    "id": 739,
    "name": "S Hyde Park",
    "lat": 27.94144689639637,
    "lon": -82.46382406830877,
    "description": null,
    "address1": "300 S Hyde Park Ave",
    "address2": null,
    "city": "Tampa",
    "state": "Florida",
    "zip": "33606",
    "country": "United States",
    "notes": null,
    "accessHours": {
      "monday": [],
      "tuesday": [],
      "wednesday": [],
      "thursday": [],
      "friday": [],
      "saturday": [],
      "sunday": []
    },
    "timezone": "EST5EDT"
  },
  {
    "id": 279,
    "name": "The postal place ",
    "lat": 34.1673854,
    "lon": -118.6208384,
    "description": null,
    "address1": "22647 Ventura Blvd",
    "address2": "",
    "city": "Los Angeles",
    "state": "California",
    "zip": "91364",
    "country": "United States",
    "notes": null,
    "accessHours": {
      "monday": [],
      "tuesday": [],
      "wednesday": [],
      "thursday": [],
      "friday": [],
      "saturday": [],
      "sunday": []
    },
    "timezone": "US/Pacific"
  },
  {
    "id": 507,
    "name": "Stagecoach Trl",
    "lat": 29.8645589,
    "lon": -97.955076,
    "description": null,
    "address1": "712 S Stagecoach Trail",
    "address2": null,
    "city": "San Marcos",
    "state": "Texas",
    "zip": "78666",
    "country": "United States",
    "notes": null,
    "accessHours": null,
    "timezone": "CST6CDT"
  },
  {
    "id": 214,
    "name": "AUS-14",
    "lat": 30.217220210103605,
    "lon": -97.74360457618349,
    "description": null,
    "address1": "2028 E BEN WHITE BLVD",
    "address2": null,
    "city": "Austin",
    "state": "Texas",
    "zip": "78741",
    "country": "United States",
    "notes": "",
    "accessHours": null,
    "timezone": null
  },
  {
    "id": 338,
    "name": "LAX-11",
    "lat": 33.921919659544734,
    "lon": -117.41543284665583,
    "description": null,
    "address1": "2900 Adams St",
    "address2": "",
    "city": "Riverside",
    "state": "California",
    "zip": "92504",
    "country": "United States",
    "notes": null,
    "accessHours": {
      "monday": [],
      "tuesday": [],
      "wednesday": [],
      "thursday": [],
      "friday": [],
      "saturday": [],
      "sunday": []
    },
    "timezone": "America/Los_Angeles"
  },
  
  {
    "id": 419,
    "name": "Santa Monica Blvd",
    "lat": 34.0606857,
    "lon": -118.4200275,
    "description": null,
    "address1": "10203 Santa Monica Blvd",
    "address2": "",
    "city": "Los Angeles",
    "state": "California",
    "zip": "90067",
    "country": "United States",
    "notes": null,
    "accessHours": {
      "monday": [],
      "tuesday": [],
      "wednesday": [],
      "thursday": [],
      "friday": [],
      "saturday": [],
      "sunday": []
    },
    "timezone": "PST8PDT"
  },
  {
    "id": 716,
    "name": "E Broadway Blvd",
    "lat": 32.2217101599,
    "lon": -110.8942599359,
    "description": null,
    "address1": "4601 E Broadway Blvd",
    "address2": null,
    "city": "Tucson",
    "state": "Arizona",
    "zip": "85711",
    "country": "United States",
    "notes": null,
    "accessHours": null,
    "timezone": "PST8PDT"
  },
  {
    "id": 664,
    "name": "N 1st Ave",
    "lat": 44.9811231,
    "lon": -93.2726807,
    "description": null,
    "address1": "400 N 1st Ave",
    "address2": null,
    "city": "Minneapolis",
    "state": "Minnesota",
    "zip": "55401",
    "country": "United States",
    "notes": null,
    "accessHours": null,
    "timezone": "CST6CDT"
  },
  {
    "id": 412,
    "name": "Westfield - Culver City",
    "lat": 33.98551347896565,
    "lon": -118.39511037842243,
    "description": null,
    "address1": "6000 Sepulveda Blvd",
    "address2": "",
    "city": "Culver City",
    "state": "California",
    "zip": "90230",
    "country": "United States",
    "notes": null,
    "accessHours": {
      "monday": [],
      "tuesday": [],
      "wednesday": [],
      "thursday": [],
      "friday": [],
      "saturday": [],
      "sunday": []
    },
    "timezone": "US/Pacific"
  },
  {
    "id": 610,
    "name": "S Bannock St",
    "lat": 39.6559185279,
    "lon": -104.9906303121,
    "description": null,
    "address1": "3333 S Bannock St",
    "address2": null,
    "city": "Aurora",
    "state": "Colorado",
    "zip": "80011",
    "country": "United States",
    "notes": null,
    "accessHours": null,
    "timezone": "CST6CDT"
  },
  {
    "id": 457,
    "name": "Greeley Commons by Sprouts ",
    "lat": 40.3910317,
    "lon": -104.7583414,
    "description": null,
    "address1": "4759 W 29th",
    "address2": "St B",
    "city": " Greeley",
    "state": "Colorado",
    "zip": "80634",
    "country": "United States",
    "notes": null,
    "accessHours": {
      "monday": [],
      "tuesday": [],
      "wednesday": [],
      "thursday": [],
      "friday": [],
      "saturday": [],
      "sunday": []
    },
    "timezone": "US/Mountain"
  },
  {
    "id": 678,
    "name": "NW 2nd St",
    "lat": 35.4685249,
    "lon": -97.6202211,
    "description": null,
    "address1": "5936 NW 2nd St",
    "address2": null,
    "city": "Oklahoma City",
    "state": "Oklahoma",
    "zip": "73127",
    "country": "United States",
    "notes": null,
    "accessHours": null,
    "timezone": "CST6CDT"
  },
  {
    "id": 281,
    "name": "Second Ship 1",
    "lat": 34.1482537,
    "lon": -118.6479459,
    "description": null,
    "address1": "23942 Park Granada",
    "address2": "",
    "city": "Calabasas",
    "state": "California",
    "zip": "91302",
    "country": "United States",
    "notes": null,
    "accessHours": {
      "monday": [],
      "tuesday": [],
      "wednesday": [],
      "thursday": [],
      "friday": [],
      "saturday": [],
      "sunday": []
    },
    "timezone": "US/Pacific"
  },
  {
    "id": 687,
    "name": "Business Center",
    "lat": 28.1935767,
    "lon": -80.6687445,
    "description": null,
    "address1": "2825 Business Ctr Blvd",
    "address2": null,
    "city": "Melbourne",
    "state": "Florida",
    "zip": "32940",
    "country": "United States",
    "notes": null,
    "accessHours": {
      "monday": [],
      "tuesday": [],
      "wednesday": [],
      "thursday": [],
      "friday": [],
      "saturday": [],
      "sunday": []
    },
    "timezone": "EST5EDT"
  },
  {
    "id": 510,
    "name": "BHM - Allison-Bonnet ",
    "lat": 33.456923487182586,
    "lon": -86.96312330263744,
    "description": null,
    "address1": "833 Allison-Bonnet Memorial Dr",
    "address2": null,
    "city": "Bessemer",
    "state": "Alabama",
    "zip": "35023",
    "country": "United States",
    "notes": null,
    "accessHours": {
      "monday": [],
      "tuesday": [],
      "wednesday": [],
      "thursday": [],
      "friday": [],
      "saturday": [],
      "sunday": []
    },
    "timezone": "CST6CDT"
  },
  {
    "id": 642,
    "name": "Homestead Rd",
    "lat": 29.8557884,
    "lon": -95.3005998,
    "description": null,
    "address1": "9929 Homestead Rd",
    "address2": null,
    "city": "Houston",
    "state": "Texas",
    "zip": "77016",
    "country": "United States",
    "notes": null,
    "accessHours": null,
    "timezone": "CST6CDT"
  },
  {
    "id": 259,
    "name": "Pantry Plus",
    "lat": 39.01812169999999,
    "lon": -76.75972709999999,
    "description": null,
    "address1": "14000 Jericho Park Road",
    "address2": null,
    "city": "Bowie",
    "state": "Maryland",
    "zip": "20715",
    "country": "United States",
    "notes": null,
    "accessHours": null,
    "timezone": null
  },
  {
    "id": 519,
    "name": "Perkins Rd",
    "lat": 30.3911214,
    "lon": -91.0634024,
    "description": null,
    "address1": "6160 Perkins Rd",
    "address2": null,
    "city": "Baton Rouge",
    "state": "Louisiana",
    "zip": "70808",
    "country": "United States",
    "notes": null,
    "accessHours": null,
    "timezone": "CST6CDT"
  },
  {
    "id": 409,
    "name": "Executive park blvd",
    "lat": 36.0821276,
    "lon": -80.3013648,
    "description": null,
    "address1": "268 Executive Park Blvd",
    "address2": "",
    "city": "Winston-Salem",
    "state": "North Carolina",
    "zip": "27103",
    "country": "United States",
    "notes": null,
    "accessHours": {
      "monday": [],
      "tuesday": [],
      "wednesday": [],
      "thursday": [],
      "friday": [],
      "saturday": [],
      "sunday": []
    },
    "timezone": "US/Eastern"
  },
  {
    "id": 725,
    "name": "W Florist Ave",
    "lat": 43.1262953,
    "lon": -87.9361884,
    "description": null,
    "address1": "1990 W Florist Ave",
    "address2": null,
    "city": "Glendale",
    "state": "Wisconsin",
    "zip": "53209",
    "country": "United States",
    "notes": null,
    "accessHours": {
      "monday": [],
      "tuesday": [],
      "wednesday": [],
      "thursday": [],
      "friday": [],
      "saturday": [],
      "sunday": []
    },
    "timezone": "US/Eastern"
  },
  {
    "id": 521,
    "name": "Thames St",
    "lat": 39.2819796,
    "lon": -76.5901437,
    "description": null,
    "address1": "1832 Thames St",
    "address2": null,
    "city": "Balitmore",
    "state": "Maryland",
    "zip": "21231",
    "country": "United States",
    "notes": null,
    "accessHours": null,
    "timezone": "CST6CDT"
  },
  {
    "id": 131,
    "name": "SMF-18",
    "lat": 38.94145,
    "lon": -121.09873,
    "description": null,
    "address1": "11990 HERITAGE OAK PL",
    "address2": null,
    "city": "Auburn",
    "state": "California",
    "zip": "95603",
    "country": "United States",
    "notes": null,
    "accessHours": null,
    "timezone": null
  },
  {
    "id": 3,
    "name": "ABC Market",
    "lat": 39.72167641907358,
    "lon": -121.84069890297754,
    "description": "ABC Market",
    "address1": "715 W 9th St",
    "address2": null,
    "city": "Chico",
    "state": "California",
    "zip": "95925",
    "country": "United States",
    "notes": "",
    "accessHours": null,
    "timezone": null
  },
  {
    "id": 324,
    "name": "Luxer University West",
    "lat": 38.6591855,
    "lon": -121.3878296,
    "description": null,
    "address1": "5040 Dudley",
    "address2": "",
    "city": "McClellan Park",
    "state": "California",
    "zip": "95652",
    "country": "United States",
    "notes": "",
    "accessHours": {
      "monday": [],
      "tuesday": [],
      "wednesday": [],
      "thursday": [],
      "friday": [],
      "saturday": [],
      "sunday": []
    },
    "timezone": "America/Los_Angeles"
  },
  {
    "id": 212,
    "name": "AUS-12",
    "lat": 30.139678869778464,
    "lon": -97.79490420993861,
    "description": null,
    "address1": "2110 BOCA RATON DR",
    "address2": null,
    "city": "Austin",
    "state": "Texas",
    "zip": "78747",
    "country": "United States",
    "notes": "",
    "accessHours": null,
    "timezone": null
  },
  {
    "id": 404,
    "name": "Visitor info center",
    "lat": 35.9959995,
    "lon": -78.90235299999999,
    "description": null,
    "address1": "100 Market",
    "address2": "",
    "city": "Durham",
    "state": "North Carolina",
    "zip": "27701",
    "country": "United States",
    "notes": null,
    "accessHours": {
      "monday": [],
      "tuesday": [],
      "wednesday": [],
      "thursday": [],
      "friday": [],
      "saturday": [],
      "sunday": []
    },
    "timezone": "US/Eastern"
  },
  {
    "id": 584,
    "name": "Clawiter Rd",
    "lat": 37.6463376,
    "lon": -122.1198006,
    "description": null,
    "address1": "23824 Clawiter Rd",
    "address2": null,
    "city": "Hayward",
    "state": "California",
    "zip": "94545",
    "country": "United States",
    "notes": null,
    "accessHours": {
      "monday": [],
      "tuesday": [],
      "wednesday": [],
      "thursday": [],
      "friday": [],
      "saturday": [],
      "sunday": []
    },
    "timezone": "PST8PDT"
  },
  {
    "id": 398,
    "name": "Executive center ",
    "lat": 35.2015181,
    "lon": -80.7437245,
    "description": null,
    "address1": "5601 Executive Center Dr",
    "address2": "",
    "city": "Charlotte",
    "state": "North Carolina",
    "zip": "28212",
    "country": "United States",
    "notes": null,
    "accessHours": {
      "monday": [],
      "tuesday": [],
      "wednesday": [],
      "thursday": [],
      "friday": [],
      "saturday": [],
      "sunday": []
    },
    "timezone": "US/Eastern"
  },
  {
    "id": 635,
    "name": "HOU - East Fwy",
    "lat": 29.772955,
    "lon": -95.2303129,
    "description": null,
    "address1": "11419 East Fwy",
    "address2": null,
    "city": "Houston",
    "state": "Texas",
    "zip": "77013",
    "country": "United States",
    "notes": "FKA: HOU â€“ SW Freeway (4141 Southwest Freeway, Houston, TX 77027)",
    "accessHours": {
      "monday": [],
      "tuesday": [],
      "wednesday": [],
      "thursday": [],
      "friday": [],
      "saturday": [],
      "sunday": []
    },
    "timezone": "CST6CDT"
  },
  {
    "id": 388,
    "name": "Cain's Ballroom (Entrance)",
    "lat": 36.16096539999999,
    "lon": -95.9946396,
    "description": null,
    "address1": "423 N. Main Street",
    "address2": "",
    "city": "Tulsa",
    "state": "Oklahoma",
    "zip": "74103",
    "country": "United States",
    "notes": null,
    "accessHours": {
      "monday": [],
      "tuesday": [],
      "wednesday": [],
      "thursday": [],
      "friday": [],
      "saturday": [],
      "sunday": []
    },
    "timezone": "US/Central"
  },
  {
    "id": 151,
    "name": "1838 N Shoreline",
    "lat": 37.4196897,
    "lon": -122.0780583,
    "description": null,
    "address1": "1838 N Shoreline Blvd",
    "address2": null,
    "city": "Mountain View",
    "state": "California",
    "zip": "94043",
    "country": "United States",
    "notes": null,
    "accessHours": null,
    "timezone": null
  },
  {
    "id": 639,
    "name": "Alabama St",
    "lat": 29.7383647,
    "lon": -95.4251925,
    "description": null,
    "address1": "3205 Alabama St",
    "address2": null,
    "city": "Houston",
    "state": "Texas",
    "zip": "77098",
    "country": "United States",
    "notes": null,
    "accessHours": null,
    "timezone": "CST6CDT"
  },
  {
    "id": 616,
    "name": "17th St",
    "lat": 39.746624,
    "lon": -104.991742,
    "description": null,
    "address1": "730 17th St",
    "address2": null,
    "city": "Denver",
    "state": "Colorado",
    "zip": "80202",
    "country": "United States",
    "notes": null,
    "accessHours": {
      "monday": [],
      "tuesday": [],
      "wednesday": [],
      "thursday": [],
      "friday": [],
      "saturday": [],
      "sunday": []
    },
    "timezone": "CST6CDT"
  },
  {
    "id": 225,
    "name": "SMF-21",
    "lat": 38.57035256982025,
    "lon": -121.41672001933142,
    "description": null,
    "address1": "350 UNIVERSITY AVE",
    "address2": null,
    "city": "Sacramento",
    "state": "California",
    "zip": "95825",
    "country": "United States",
    "notes": "",
    "accessHours": null,
    "timezone": null
  },
  {
    "id": 418,
    "name": "Canoga Ave",
    "lat": 34.1761268,
    "lon": -118.5973893,
    "description": null,
    "address1": "5844 Canoga Ave",
    "address2": "",
    "city": "Los Angeles",
    "state": "California",
    "zip": "91367",
    "country": "United States",
    "notes": null,
    "accessHours": {
      "monday": [],
      "tuesday": [],
      "wednesday": [],
      "thursday": [],
      "friday": [],
      "saturday": [],
      "sunday": []
    },
    "timezone": "PST8PDT"
  },
  {
    "id": 706,
    "name": "Southwest Ave",
    "lat": 38.6125088,
    "lon": -90.268459,
    "description": null,
    "address1": "4924 Southwest Ave",
    "address2": null,
    "city": "St. Louis",
    "state": "Missouri",
    "zip": "63110",
    "country": "United States",
    "notes": null,
    "accessHours": null,
    "timezone": "CST6CDT"
  },
  {
    "id": 333,
    "name": "LAX-6",
    "lat": 34.072839556401426,
    "lon": -118.03355603826468,
    "description": null,
    "address1": "11138 Main St",
    "address2": "",
    "city": "El Monte",
    "state": "California",
    "zip": "91731",
    "country": "United States",
    "notes": null,
    "accessHours": {
      "monday": [],
      "tuesday": [],
      "wednesday": [],
      "thursday": [],
      "friday": [],
      "saturday": [],
      "sunday": []
    },
    "timezone": "America/Los_Angeles"
  },
  {
    "id": 63,
    "name": "Pacific Market",
    "lat": 38.56806335244412,
    "lon": -121.4762162510667,
    "description": null,
    "address1": "2500 P Street",
    "address2": "",
    "city": "Sacramento",
    "state": "California",
    "zip": "95816",
    "country": "United States",
    "notes": "",
    "accessHours": {
      "monday": [],
      "tuesday": [],
      "wednesday": [],
      "thursday": [],
      "friday": [],
      "saturday": [],
      "sunday": []
    },
    "timezone": "US/Pacific"
  },
  
  {
    "id": 325,
    "name": "LPCE Bagdrop",
    "lat": 35.142961,
    "lon": -80.94099609999999,
    "description": null,
    "address1": "2745 Whitehall Park Suite 500",
    "address2": "",
    "city": "Charlotte",
    "state": "North Carolina",
    "zip": "28273",
    "country": "United States",
    "notes": null,
    "accessHours": {
      "monday": [],
      "tuesday": [],
      "wednesday": [],
      "thursday": [],
      "friday": [],
      "saturday": [],
      "sunday": []
    },
    "timezone": "US/Eastern"
  },
  {
    "id": 673,
    "name": "Queens Blvd",
    "lat": 40.72885772857502,
    "lon": -73.85848025391039,
    "description": null,
    "address1": "97-77 Queens Blvd",
    "address2": null,
    "city": "Rego Park",
    "state": "New York",
    "zip": "11374",
    "country": "United States",
    "notes": null,
    "accessHours": {
      "monday": [],
      "tuesday": [],
      "wednesday": [],
      "thursday": [],
      "friday": [],
      "saturday": [],
      "sunday": []
    },
    "timezone": "US/Eastern"
  },
  {
    "id": 516,
    "name": "Tremont St",
    "lat": 42.3415711,
    "lon": -71.0761505,
    "description": null,
    "address1": "666 Tremont St",
    "address2": null,
    "city": "Boston",
    "state": "Massachusetts",
    "zip": "2118",
    "country": "United States",
    "notes": null,
    "accessHours": null,
    "timezone": "EST5EDT"
  },
  {
    "id": 571,
    "name": "Camino Del Rio N",
    "lat": 32.7785486,
    "lon": -117.118823,
    "description": null,
    "address1": "3498 Camino Del Rio N",
    "address2": null,
    "city": "San Diego",
    "state": "California",
    "zip": "92108",
    "country": "United States",
    "notes": null,
    "accessHours": null,
    "timezone": "PST8PDT"
  },
  {
    "id": 666,
    "name": "Poston Ave",
    "lat": 36.1452154,
    "lon": -86.8152761,
    "description": null,
    "address1": "2999 Poston Ave",
    "address2": null,
    "city": "Nashville",
    "state": "Tennessee",
    "zip": "37203",
    "country": "United States",
    "notes": null,
    "accessHours": null,
    "timezone": "EST5EDT"
  },
  {
    "id": 542,
    "name": "E 17th St",
    "lat": 33.6343288,
    "lon": -117.9172975,
    "description": null,
    "address1": "244 E 17th St",
    "address2": null,
    "city": "Costa Mesa",
    "state": "California",
    "zip": "92627",
    "country": "United States",
    "notes": null,
    "accessHours": null,
    "timezone": "PST8PDT"
  },
  {
    "id": 443,
    "name": "E Marginal Wy S",
    "lat": 47.5330115,
    "lon": -122.3116415,
    "description": null,
    "address1": "7755 E Marginal Wy S",
    "address2": "",
    "city": "Seattle",
    "state": "Washington",
    "zip": "98108",
    "country": "United States",
    "notes": "To right of usps drop box",
    "accessHours": {
      "monday": [],
      "tuesday": [],
      "wednesday": [],
      "thursday": [],
      "friday": [],
      "saturday": [],
      "sunday": []
    },
    "timezone": "PST8PDT"
  },
  {
    "id": 387,
    "name": "Harbor HQ",
    "lat": 38.65922287619123,
    "lon": -121.38767939378306,
    "description": null,
    "address1": "5040 Dudley Blvd",
    "address2": "",
    "city": "McClellan Park",
    "state": "California",
    "zip": "95652",
    "country": "United States",
    "notes": null,
    "accessHours": {
      "monday": [],
      "tuesday": [],
      "wednesday": [],
      "thursday": [],
      "friday": [],
      "saturday": [],
      "sunday": []
    },
    "timezone": "US/Pacific"
  },
  {
    "id": 295,
    "name": "Manifest-B",
    "lat": 36.12116,
    "lon": -115.16556,
    "description": null,
    "address1": "3545 S Las Vegas Blvd",
    "address2": "",
    "city": "Las Vegas",
    "state": "Nevada",
    "zip": "89109",
    "country": "United States",
    "notes": null,
    "accessHours": {
      "monday": [],
      "tuesday": [],
      "wednesday": [],
      "thursday": [],
      "friday": [],
      "saturday": [],
      "sunday": []
    },
    "timezone": "US/Pacific"
  },
  {
    "id": 694,
    "name": "E Center St",
    "lat": 40.2339245,
    "lon": -111.6569558,
    "description": null,
    "address1": "100 E Center St",
    "address2": null,
    "city": "Provo",
    "state": "Utah",
    "zip": "84606",
    "country": "United States",
    "notes": "",
    "accessHours": null,
    "timezone": "MST7MDT"
  },
  {
    "id": 484,
    "name": "E Southport Rd",
    "lat": 39.6657748,
    "lon": -86.10016440000001,
    "description": null,
    "address1": "3850 E Southport Rd",
    "address2": "",
    "city": "Indianapolis",
    "state": "Indiana",
    "zip": "46237",
    "country": "United States",
    "notes": null,
    "accessHours": {
      "monday": [],
      "tuesday": [],
      "wednesday": [],
      "thursday": [],
      "friday": [],
      "saturday": [],
      "sunday": []
    },
    "timezone": "EST"
  },
  {
    "id": 213,
    "name": "AUS-13",
    "lat": 30.108275,
    "lon": -97.333482,
    "description": null,
    "address1": "489 HIGHWAY 71",
    "address2": null,
    "city": "Bastrop",
    "state": "Texas",
    "zip": "78602",
    "country": "United States",
    "notes": null,
    "accessHours": null,
    "timezone": null
  },
  {
    "id": 334,
    "name": "LAX-7",
    "lat": 33.985202210688016,
    "lon": -118.10025893636526,
    "description": null,
    "address1": "8729 Washington Blvd",
    "address2": "",
    "city": "Pico Rivera",
    "state": "California",
    "zip": "90660",
    "country": "United States",
    "notes": null,
    "accessHours": {
      "monday": [],
      "tuesday": [],
      "wednesday": [],
      "thursday": [],
      "friday": [],
      "saturday": [],
      "sunday": []
    },
    "timezone": "America/Los_Angeles"
  },
  {
    "id": 274,
    "name": "Westfield",
    "lat": 34.060168673863224,
    "lon": -118.41905865289068,
    "description": null,
    "address1": "10250 Santal Monica Blvd\t",
    "address2": "",
    "city": "Los Angeles",
    "state": "California",
    "zip": "90067",
    "country": "United States",
    "notes": null,
    "accessHours": {
      "monday": [],
      "tuesday": [],
      "wednesday": [],
      "thursday": [],
      "friday": [],
      "saturday": [],
      "sunday": []
    },
    "timezone": "US/Pacific"
  },
  {
    "id": 471,
    "name": "Oak st",
    "lat": 39.1306154,
    "lon": -84.5009762,
    "description": null,
    "address1": "411 Oak St",
    "address2": "",
    "city": "Cincinnati",
    "state": "Ohio",
    "zip": "45219",
    "country": "United States",
    "notes": null,
    "accessHours": {
      "monday": [],
      "tuesday": [],
      "wednesday": [],
      "thursday": [],
      "friday": [],
      "saturday": [],
      "sunday": []
    },
    "timezone": "EST"
  },
  {
    "id": 598,
    "name": "Maple Ave",
    "lat": 32.7975931,
    "lon": -96.8069281,
    "description": null,
    "address1": "2905 Maple Ave",
    "address2": null,
    "city": "Dallas",
    "state": "Texas",
    "zip": "75201",
    "country": "United States",
    "notes": null,
    "accessHours": null,
    "timezone": "CST6CDT"
  },
  {
    "id": 690,
    "name": "Roosevelt Blvd",
    "lat": 40.05608490179612,
    "lon": -75.04548806795174,
    "description": null,
    "address1": "8001 Roosevelt Blvd",
    "address2": null,
    "city": "Philadelphia",
    "state": "Pennsylvania",
    "zip": "19152",
    "country": "United States",
    "notes": null,
    "accessHours": {
      "monday": [],
      "tuesday": [],
      "wednesday": [],
      "thursday": [],
      "friday": [],
      "saturday": [],
      "sunday": []
    },
    "timezone": "EST5EDT"
  },
  {
    "id": 669,
    "name": "S Carrollton Ave",
    "lat": 29.9508795,
    "lon": -90.1257033,
    "description": null,
    "address1": "1701 S Carrollton Ave",
    "address2": null,
    "city": "New Orleans",
    "state": "Louisiana",
    "zip": "70118",
    "country": "United States",
    "notes": null,
    "accessHours": null,
    "timezone": "CST6CDT"
  },
  {
    "id": 223,
    "name": "Vintage Boxing",
    "lat": 37.56599,
    "lon": -77.46882,
    "description": null,
    "address1": "1202 N Arthur Ashe Blvd",
    "address2": null,
    "city": "Richmond",
    "state": "Virginia",
    "zip": "23230",
    "country": "United States",
    "notes": null,
    "accessHours": null,
    "timezone": null
  },
  {
    "id": 221,
    "name": "35th & N St.",
    "lat": 37.52871,
    "lon": -77.40364,
    "description": null,
    "address1": "701 N 37th Street",
    "address2": null,
    "city": "Richmond",
    "state": "Virginia",
    "zip": "23223",
    "country": "United States",
    "notes": null,
    "accessHours": null,
    "timezone": null
  },
  {
    "id": 362,
    "name": "Reed Park",
    "lat": 30.3049131,
    "lon": -97.77138149999999,
    "description": null,
    "address1": "2614 Pecos St",
    "address2": "",
    "city": "Austin",
    "state": "Texas",
    "zip": "78703",
    "country": "United States",
    "notes": null,
    "accessHours": {
      "monday": [],
      "tuesday": [],
      "wednesday": [],
      "thursday": [],
      "friday": [],
      "saturday": [],
      "sunday": []
    },
    "timezone": "US/Central"
  },
  {
    "id": 752,
    "name": "Mccain Pkwy",
    "lat": 33.2739849,
    "lon": -86.7979037,
    "description": null,
    "address1": "1400 McCain Parkway",
    "address2": "",
    "city": "Pelham",
    "state": "Alabama",
    "zip": "35124",
    "country": "United States",
    "notes": null,
    "accessHours": {
      "monday": [],
      "tuesday": [],
      "wednesday": [],
      "thursday": [],
      "friday": [],
      "saturday": [],
      "sunday": []
    },
    "timezone": "US/Central"
  },
  {
    "id": 464,
    "name": "IL-19",
    "lat": 41.9534027,
    "lon": -87.73365199999999,
    "description": null,
    "address1": "4229 IL-19",
    "address2": "",
    "city": "Chicago",
    "state": "Illinois",
    "zip": "60641",
    "country": "United States",
    "notes": null,
    "accessHours": {
      "monday": [],
      "tuesday": [],
      "wednesday": [],
      "thursday": [],
      "friday": [],
      "saturday": [],
      "sunday": []
    },
    "timezone": "CST6CDT"
  },
  {
    "id": 430,
    "name": "SW Barnes Rd",
    "lat": 45.5121089053812,
    "lon": -122.77778623625636,
    "description": null,
    "address1": "9755 SW Barnes Rd",
    "address2": "",
    "city": "Portland",
    "state": "Oregon",
    "zip": "97225",
    "country": "United States",
    "notes": "",
    "accessHours": {
      "monday": [],
      "tuesday": [],
      "wednesday": [],
      "thursday": [],
      "friday": [],
      "saturday": [],
      "sunday": []
    },
    "timezone": "PST8PDT"
  },
  {
    "id": 312,
    "name": "San Anselmo",
    "lat": 37.9743071,
    "lon": -122.562588,
    "description": null,
    "address1": "101 Tunstead Ave",
    "address2": "",
    "city": "San Anselmo",
    "state": "California",
    "zip": "94960",
    "country": "United States",
    "notes": null,
    "accessHours": {
      "monday": [],
      "tuesday": [],
      "wednesday": [],
      "thursday": [],
      "friday": [],
      "saturday": [],
      "sunday": []
    },
    "timezone": "America/Los_Angeles"
  },
  {
    "id": 498,
    "name": "Habersham Dr",
    "lat": 33.8530524,
    "lon": -84.2443959,
    "description": null,
    "address1": "3533 Habersham at Northlake Rd",
    "address2": null,
    "city": "Tucker",
    "state": "Georgia",
    "zip": "30084",
    "country": "United States",
    "notes": null,
    "accessHours": {
      "monday": [],
      "tuesday": [],
      "wednesday": [],
      "thursday": [],
      "friday": [],
      "saturday": [],
      "sunday": []
    },
    "timezone": "US/Eastern"
  },
  {
    "id": 158,
    "name": "Droplocker Offices",
    "lat": 38.65925756631872,
    "lon": -121.38792593930728,
    "description": null,
    "address1": "5040 Dudley Blvd",
    "address2": null,
    "city": "McClellan Park",
    "state": "California",
    "zip": "95652",
    "country": "United States",
    "notes": "",
    "accessHours": null,
    "timezone": null
  },
  {
    "id": 688,
    "name": "S 40th St",
    "lat": 39.9529557853,
    "lon": -75.2026921597,
    "description": null,
    "address1": "231 S 40th St",
    "address2": null,
    "city": "Philadelphia",
    "state": "Pennsylvania",
    "zip": "19145",
    "country": "United States",
    "notes": null,
    "accessHours": null,
    "timezone": "EST5EDT"
  },
  {
    "id": 277,
    "name": "Ottonomy-IO",
    "lat": 36.1294618,
    "lon": -115.1544356,
    "description": null,
    "address1": "3150 Paradise Rd",
    "address2": "",
    "city": "Las Vegas",
    "state": "Nevada",
    "zip": "89109",
    "country": "United States",
    "notes": null,
    "accessHours": {
      "monday": [],
      "tuesday": [],
      "wednesday": [],
      "thursday": [],
      "friday": [],
      "saturday": [],
      "sunday": []
    },
    "timezone": "US/Pacific"
  },
  {
    "id": 594,
    "name": "Singleton Blvd",
    "lat": 32.7789946,
    "lon": -96.8587742,
    "description": null,
    "address1": "2231 Singleton Blvd",
    "address2": null,
    "city": "Dallas",
    "state": "Texas",
    "zip": "75212",
    "country": "United States",
    "notes": null,
    "accessHours": null,
    "timezone": "CST6CDT"
  },
 
  {
    "id": 494,
    "name": "Anne St",
    "lat": 33.2318737,
    "lon": -84.2814521,
    "description": null,
    "address1": "1145 Anne St",
    "address2": null,
    "city": "Griffin, Georgia",
    "state": "Georgia",
    "zip": "30224",
    "country": "United States",
    "notes": null,
    "accessHours": null,
    "timezone": "EST5EDT"
  },
  
  {
    "id": 683,
    "name": "Lucien Way",
    "lat": 28.6251625,
    "lon": -81.3879247,
    "description": null,
    "address1": "2200 Lucien Way",
    "address2": null,
    "city": "Maitland",
    "state": "Florida",
    "zip": "32751",
    "country": "United States",
    "notes": null,
    "accessHours": null,
    "timezone": "EST5EDT"
  },
  {
    "id": 499,
    "name": "Hembree Park Dr",
    "lat": 34.0561083,
    "lon": -84.3165212,
    "description": null,
    "address1": "192 Hembree Park Dr",
    "address2": null,
    "city": "Roswell",
    "state": "Georgia",
    "zip": "30076",
    "country": "United States",
    "notes": null,
    "accessHours": null,
    "timezone": "EST5EDT"
  },
  {
    "id": 284,
    "name": "Computer Zone",
    "lat": 33.9788958,
    "lon": -84.4624286,
    "description": null,
    "address1": "3079 Roswell Rd",
    "address2": "",
    "city": "Marietta",
    "state": "Georgia",
    "zip": "30062",
    "country": "United States",
    "notes": null,
    "accessHours": {
      "monday": [],
      "tuesday": [],
      "wednesday": [],
      "thursday": [],
      "friday": [],
      "saturday": [],
      "sunday": []
    },
    "timezone": "US/Eastern"
  },
  {
    "id": 265,
    "name": "Franklin Field",
    "lat": 42.918396936705946,
    "lon": -88.01540606725584,
    "description": null,
    "address1": "7035 South Ballpark Drive",
    "address2": "",
    "city": "Franklin",
    "state": "Wisconsin",
    "zip": "53132",
    "country": "United States",
    "notes": null,
    "accessHours": {
      "monday": [],
      "tuesday": [],
      "wednesday": [],
      "thursday": [],
      "friday": [],
      "saturday": [],
      "sunday": []
    },
    "timezone": "US/Central"
  },
  {
    "id": 662,
    "name": "NW 67th Ave",
    "lat": 25.9002387347,
    "lon": -80.3081330424,
    "description": null,
    "address1": "13937 NW 67th Ave",
    "address2": null,
    "city": "Miami Lakes",
    "state": "Florida",
    "zip": "33014",
    "country": "United States",
    "notes": null,
    "accessHours": null,
    "timezone": "EST5EDT"
  },
  {
    "id": 608,
    "name": "Beech Rd",
    "lat": 38.8249488424,
    "lon": -76.9401194517,
    "description": null,
    "address1": "4518 Beech Rd",
    "address2": null,
    "city": "Temple Hills",
    "state": "Maryland",
    "zip": "20748",
    "country": "United States",
    "notes": null,
    "accessHours": null,
    "timezone": "EST5EDT"
  },
  {
    "id": 342,
    "name": "A Capella Books",
    "lat": 33.75961095287461,
    "lon": -84.3505597114563,
    "description": null,
    "address1": "208 Haralson Ave NE",
    "address2": "",
    "city": "Atlanta",
    "state": "Georgia",
    "zip": "30307",
    "country": "United States",
    "notes": null,
    "accessHours": {
      "monday": [],
      "tuesday": [],
      "wednesday": [],
      "thursday": [],
      "friday": [],
      "saturday": [],
      "sunday": []
    },
    "timezone": "US/Eastern"
  },
  {
    "id": 459,
    "name": "Hilltop Village",
    "lat": 39.94419526477564,
    "lon": -104.9373801442432,
    "description": null,
    "address1": "4243 E 136th Ave",
    "address2": "",
    "city": "Thornton",
    "state": "Colorado",
    "zip": "80602",
    "country": "United States",
    "notes": null,
    "accessHours": {
      "monday": [],
      "tuesday": [],
      "wednesday": [],
      "thursday": [],
      "friday": [],
      "saturday": [],
      "sunday": []
    },
    "timezone": "US/Mountain"
  },
  {
    "id": 702,
    "name": "NW Plz Dr",
    "lat": 38.7322945176,
    "lon": -90.3984751041,
    "description": null,
    "address1": "500 NW Plz Dr",
    "address2": null,
    "city": "St Ann",
    "state": "Missouri",
    "zip": "63074",
    "country": "United States",
    "notes": null,
    "accessHours": null,
    "timezone": "CST6CDT"
  },
  {
    "id": 123,
    "name": "Parkway Plaza Apt",
    "lat": 33.982725,
    "lon": -118.390979,
    "description": null,
    "address1": "6220 Bristol Pkwy",
    "address2": null,
    "city": "Culver City",
    "state": "California",
    "zip": "90230",
    "country": "United States",
    "notes": null,
    "accessHours": null,
    "timezone": null
  },
  {
    "id": 360,
    "name": "Maaco",
    "lat": 30.453989,
    "lon": -97.6574813,
    "description": null,
    "address1": "16040 Central Commerce Dr",
    "address2": "",
    "city": "Pflugerville",
    "state": "Texas",
    "zip": "78660",
    "country": "United States",
    "notes": null,
    "accessHours": {
      "monday": [],
      "tuesday": [],
      "wednesday": [],
      "thursday": [],
      "friday": [],
      "saturday": [],
      "sunday": []
    },
    "timezone": "US/Central"
  },
  {
    "id": 385,
    "name": "Santa Monica",
    "lat": 34.0242562,
    "lon": -118.4882596,
    "description": null,
    "address1": "1302 Euclid St",
    "address2": "",
    "city": "Santa Monica",
    "state": "California",
    "zip": "90404",
    "country": "United States",
    "notes": null,
    "accessHours": {
      "monday": [],
      "tuesday": [],
      "wednesday": [],
      "thursday": [],
      "friday": [],
      "saturday": [],
      "sunday": []
    },
    "timezone": "US/Pacific"
  },
  {
    "id": 371,
    "name": "Cole Kepro",
    "lat": 36.2363548,
    "lon": -115.1193519,
    "description": null,
    "address1": "4170 Distribution Cir",
    "address2": "",
    "city": "North Las Vegas",
    "state": "Nevada",
    "zip": "89030",
    "country": "United States",
    "notes": null,
    "accessHours": {
      "monday": [],
      "tuesday": [],
      "wednesday": [],
      "thursday": [],
      "friday": [],
      "saturday": [],
      "sunday": []
    },
    "timezone": "US/Pacific"
  },
  {
    "id": 726,
    "name": "Grand Blvd",
    "lat": 39.1001066537,
    "lon": -94.5810392008,
    "description": null,
    "address1": "1150 Grand Blvd",
    "address2": null,
    "city": "Kansas City",
    "state": "Missouri",
    "zip": "64106",
    "country": "United States",
    "notes": null,
    "accessHours": null,
    "timezone": "CST6CDT"
  },
  
  {
    "id": 655,
    "name": "Scottsway Rd",
    "lat": 35.078045,
    "lon": -89.8867935,
    "description": null,
    "address1": "2565 Scottsway Rd",
    "address2": null,
    "city": "Memphis",
    "state": "Tennessee",
    "zip": "38115",
    "country": "United States",
    "notes": null,
    "accessHours": null,
    "timezone": "CST6CDT"
  },
  {
    "id": 439,
    "name": "Ellis St",
    "lat": 37.7819519,
    "lon": -122.4358292,
    "description": null,
    "address1": "1799 ELLIS ST",
    "address2": "",
    "city": "San Francisco",
    "state": "California",
    "zip": "94115",
    "country": "United States",
    "notes": null,
    "accessHours": {
      "monday": [],
      "tuesday": [],
      "wednesday": [],
      "thursday": [],
      "friday": [],
      "saturday": [],
      "sunday": []
    },
    "timezone": "PST8PDT"
  },
  {
    "id": 704,
    "name": "Locust St",
    "lat": 38.6334327273,
    "lon": -90.2126602651,
    "description": null,
    "address1": "2300 Locust St",
    "address2": null,
    "city": "St. Louis",
    "state": "Missouri",
    "zip": "63103",
    "country": "United States",
    "notes": null,
    "accessHours": null,
    "timezone": "CST6CDT"
  },
  {
    "id": 157,
    "name": "Melo Park",
    "lat": 37.449018787474216,
    "lon": -122.15632920300833,
    "description": null,
    "address1": "611 Webster St",
    "address2": null,
    "city": "Palo Alto",
    "state": "California",
    "zip": "94301",
    "country": "United States",
    "notes": null,
    "accessHours": null,
    "timezone": null
  },
  {
    "id": 719,
    "name": "N 1st Ave",
    "lat": 32.2921815661,
    "lon": -110.9612959312,
    "description": null,
    "address1": "4651 N 1st Ave",
    "address2": null,
    "city": "Tucson",
    "state": "Arizona",
    "zip": "85718",
    "country": "United States",
    "notes": null,
    "accessHours": null,
    "timezone": "PST8PDT"
  },
  {
    "id": 413,
    "name": "Westfield - Valley Fair",
    "lat": 37.3258056640625,
    "lon": -121.94647838537581,
    "description": null,
    "address1": "2855 Stevens Creek",
    "address2": "",
    "city": "Santa Clara",
    "state": "California",
    "zip": "95050",
    "country": "United States",
    "notes": "",
    "accessHours": {
      "monday": [],
      "tuesday": [],
      "wednesday": [],
      "thursday": [],
      "friday": [],
      "saturday": [],
      "sunday": []
    },
    "timezone": "US/Pacific"
  },
  {
    "id": 336,
    "name": "LAX-9",
    "lat": 33.87021702543737,
    "lon": -117.86314738839137,
    "description": null,
    "address1": "101 S Kraemer Blvd",
    "address2": "",
    "city": "Placentia",
    "state": "California",
    "zip": "92870",
    "country": "United States",
    "notes": "",
    "accessHours": {
      "monday": [],
      "tuesday": [],
      "wednesday": [],
      "thursday": [],
      "friday": [],
      "saturday": [],
      "sunday": []
    },
    "timezone": "America/Los_Angeles"
  },
  {
    "id": 606,
    "name": "Georgia Ave",
    "lat": 38.9986121788,
    "lon": -77.0300241881,
    "description": null,
    "address1": "8757 Georgia Ave",
    "address2": null,
    "city": "Silver Spring",
    "state": "Maryland",
    "zip": "20910",
    "country": "United States",
    "notes": null,
    "accessHours": null,
    "timezone": "EST5EDT"
  },
  {
    "id": 275,
    "name": "N Inno Center 1",
    "lat": 38.58061388344517,
    "lon": -90.24015077792647,
    "description": null,
    "address1": "3207 Meramec Street",
    "address2": "",
    "city": "St. Louis",
    "state": "Missouri",
    "zip": "63118",
    "country": "United States",
    "notes": null,
    "accessHours": {
      "monday": [],
      "tuesday": [],
      "wednesday": [],
      "thursday": [],
      "friday": [],
      "saturday": [],
      "sunday": []
    },
    "timezone": "US/Eastern"
  },
  {
    "id": 247,
    "name": "SMF-3B",
    "lat": 38.660635823028514,
    "lon": -121.38600708290072,
    "description": null,
    "address1": "4979 Roberts Ave",
    "address2": null,
    "city": "McClellan Park",
    "state": "California",
    "zip": "95652",
    "country": "United States",
    "notes": "",
    "accessHours": null,
    "timezone": null
  },
  {
    "id": 649,
    "name": "S 7th St",
    "lat": 36.1596582,
    "lon": -115.1439985,
    "description": null,
    "address1": "810 S 7th St",
    "address2": null,
    "city": "Las Vegas",
    "state": "Nevada",
    "zip": "89101",
    "country": "United States",
    "notes": null,
    "accessHours": null,
    "timezone": "PST8PDT"
  },
  {
    "id": 618,
    "name": "S Wadsworth Blvd",
    "lat": 39.655199804528515,
    "lon": -105.08303748625246,
    "description": null,
    "address1": "3355 S Wadsworth Blvd",
    "address2": null,
    "city": "Lakewood",
    "state": "Colorado",
    "zip": "80227",
    "country": "United States",
    "notes": "",
    "accessHours": null,
    "timezone": "CST6CDT"
  },
  
  {
    "id": 313,
    "name": "Vallejo",
    "lat": 38.098743,
    "lon": -122.2726642,
    "description": null,
    "address1": "1040 walnut ave",
    "address2": "",
    "city": "Vallejo",
    "state": "California",
    "zip": "94592",
    "country": "United States",
    "notes": null,
    "accessHours": {
      "monday": [],
      "tuesday": [],
      "wednesday": [],
      "thursday": [],
      "friday": [],
      "saturday": [],
      "sunday": []
    },
    "timezone": "America/Los_Angeles"
  },
  {
    "id": 136,
    "name": "SMF-19",
    "lat": 38.87853,
    "lon": -121.08042,
    "description": null,
    "address1": "650 AUBURN FOLSOM RD",
    "address2": null,
    "city": "Auburn",
    "state": "California",
    "zip": "95603",
    "country": "United States",
    "notes": null,
    "accessHours": null,
    "timezone": null
  },
  {
    "id": 150,
    "name": "Redwood City",
    "lat": 37.486278027006264,
    "lon": -122.23022829312701,
    "description": null,
    "address1": "2301 Broadway",
    "address2": null,
    "city": "Redwood City",
    "state": "California",
    "zip": "94063",
    "country": "United States",
    "notes": null,
    "accessHours": null,
    "timezone": null
  },
  {
    "id": 140,
    "name": "SMF-10B",
    "lat": 38.746037,
    "lon": -121.23067,
    "description": null,
    "address1": "3721 Douglas Blvd",
    "address2": null,
    "city": "Roseville",
    "state": "California",
    "zip": "95661",
    "country": "United States",
    "notes": null,
    "accessHours": null,
    "timezone": null
  },
  {
    "id": 656,
    "name": "Sanderlin Ave",
    "lat": 35.1171675,
    "lon": -89.8914854,
    "description": null,
    "address1": "5100 Sanderlin Ave",
    "address2": null,
    "city": "Memphis",
    "state": "Tennessee",
    "zip": "38117",
    "country": "United States",
    "notes": null,
    "accessHours": null,
    "timezone": "CST6CDT"
  },
  {
    "id": 647,
    "name": "W Post Rd",
    "lat": 36.0749934,
    "lon": -115.182691,
    "description": null,
    "address1": "3050 W Post Rd",
    "address2": null,
    "city": "Las Vegas",
    "state": "Nevada",
    "zip": "89118",
    "country": "United States",
    "notes": null,
    "accessHours": null,
    "timezone": "PST8PDT"
  },
  {
    "id": 139,
    "name": "SMF-8B",
    "lat": 38.764646,
    "lon": -121.270774,
    "description": null,
    "address1": "950 Reserve Dr",
    "address2": null,
    "city": "Roseville",
    "state": "California",
    "zip": "95678",
    "country": "United States",
    "notes": null,
    "accessHours": null,
    "timezone": null
  },
  
  {
    "id": 593,
    "name": "Maple Ave",
    "lat": 32.8116541,
    "lon": -96.8225312,
    "description": null,
    "address1": "4438 Maple Ave",
    "address2": null,
    "city": "Dallas",
    "state": "Texas",
    "zip": "75219",
    "country": "United States",
    "notes": null,
    "accessHours": null,
    "timezone": "CST6CDT"
  },
  {
    "id": 479,
    "name": "E Town St",
    "lat": 39.9590395,
    "lon": -82.9958358,
    "description": null,
    "address1": "141 E Town St",
    "address2": "",
    "city": "Columbus",
    "state": "Ohio",
    "zip": "43215",
    "country": "United States",
    "notes": null,
    "accessHours": {
      "monday": [],
      "tuesday": [],
      "wednesday": [],
      "thursday": [],
      "friday": [],
      "saturday": [],
      "sunday": []
    },
    "timezone": "EST"
  },
  {
    "id": 421,
    "name": "San Fernando Mission Blvd",
    "lat": 34.2723089,
    "lon": -118.4688608,
    "description": null,
    "address1": "15455 San Fernando Mission Blvd",
    "address2": "",
    "city": "Los Angeles",
    "state": "California",
    "zip": "91345",
    "country": "United States",
    "notes": null,
    "accessHours": {
      "monday": [],
      "tuesday": [],
      "wednesday": [],
      "thursday": [],
      "friday": [],
      "saturday": [],
      "sunday": []
    },
    "timezone": "PST8PDT"
  },
  {
    "id": 411,
    "name": "Westfield - Southcenter Mall",
    "lat": 47.457966882024145,
    "lon": -122.25985289866503,
    "description": null,
    "address1": "2800 Southcenter Malll",
    "address2": "",
    "city": "Tukwila",
    "state": "Washington",
    "zip": "98188",
    "country": "United States",
    "notes": null,
    "accessHours": {
      "monday": [],
      "tuesday": [],
      "wednesday": [],
      "thursday": [],
      "friday": [],
      "saturday": [],
      "sunday": []
    },
    "timezone": "US/Pacific"
  },
  {
    "id": 429,
    "name": "SW Upper Boones Ferry Rd",
    "lat": 45.4050023,
    "lon": -122.7499471,
    "description": null,
    "address1": "15900 SW Upper Boones Ferry Rd",
    "address2": "",
    "city": "Tigard",
    "state": "Oregon",
    "zip": "97224",
    "country": "United States",
    "notes": "Address in the ticket is a gas station across the street used GPS coordinates to locate install location",
    "accessHours": {
      "monday": [],
      "tuesday": [],
      "wednesday": [],
      "thursday": [],
      "friday": [],
      "saturday": [],
      "sunday": []
    },
    "timezone": "PST8PDT"
  },
  {
    "id": 425,
    "name": "Main St ",
    "lat": 45.3623846,
    "lon": -122.6015522,
    "description": null,
    "address1": "1400 Main St",
    "address2": "",
    "city": "Oregon City",
    "state": "Oregon",
    "zip": "97045",
    "country": "United States",
    "notes": "Manual override is broken needs to be replaced control board trap door not latching adjusted door 7",
    "accessHours": {
      "monday": [],
      "tuesday": [],
      "wednesday": [],
      "thursday": [],
      "friday": [],
      "saturday": [],
      "sunday": []
    },
    "timezone": "PST8PDT"
  },
  {
    "id": 141,
    "name": "SMF-11B",
    "lat": 38.87329051937513,
    "lon": -121.13338396272293,
    "description": null,
    "address1": "9244 Old State Hwy",
    "address2": null,
    "city": "Newcastle",
    "state": "California",
    "zip": "95658",
    "country": "United States",
    "notes": "",
    "accessHours": null,
    "timezone": null
  },
  {
    "id": 122,
    "name": "The Highland",
    "lat": 34.14924,
    "lon": -118.46816,
    "description": null,
    "address1": "4355 Sepulveda Blvd",
    "address2": null,
    "city": "Los Angeles",
    "state": "California",
    "zip": "91403",
    "country": "United States",
    "notes": null,
    "accessHours": null,
    "timezone": null
  },
  {
    "id": 672,
    "name": "2nd Ave",
    "lat": 40.7357763139083,
    "lon": -74.0293277393397,
    "description": null,
    "address1": "1333 2nd Ave",
    "address2": null,
    "city": "New Hyde Park",
    "state": "New York",
    "zip": "11040",
    "country": "United States",
    "notes": null,
    "accessHours": {
      "monday": [],
      "tuesday": [],
      "wednesday": [],
      "thursday": [],
      "friday": [],
      "saturday": [],
      "sunday": []
    },
    "timezone": "US/Eastern"
  },
  {
    "id": 495,
    "name": "Bucksnort Rd",
    "lat": 33.2076336,
    "lon": -84.063903,
    "description": null,
    "address1": "1125 Bucksnort Rd",
    "address2": null,
    "city": "Jackson",
    "state": "Georgia",
    "zip": "30233",
    "country": "United States",
    "notes": null,
    "accessHours": null,
    "timezone": "EST5EDT"
  },
  {
    "id": 154,
    "name": "Saratoga",
    "lat": 37.27990291964382,
    "lon": -122.03109239137727,
    "description": null,
    "address1": "12948 Saratoga Sunnyvale Rd",
    "address2": null,
    "city": "Saratoga",
    "state": "California",
    "zip": "95070",
    "country": "United States",
    "notes": null,
    "accessHours": null,
    "timezone": null
  },
  {
    "id": 434,
    "name": "La Mesa Blvd",
    "lat": 32.7693999,
    "lon": -117.0099813,
    "description": null,
    "address1": "8693 La Mesa Blvd",
    "address2": "",
    "city": "La Mesa",
    "state": "California",
    "zip": "91942",
    "country": "United States",
    "notes": null,
    "accessHours": {
      "monday": [],
      "tuesday": [],
      "wednesday": [],
      "thursday": [],
      "friday": [],
      "saturday": [],
      "sunday": []
    },
    "timezone": "PST8PDT"
  },
  {
    "id": 657,
    "name": "NE 1st Ave",
    "lat": 25.7791727777,
    "lon": -80.1921848337,
    "description": null,
    "address1": "500 NE 1st Ave",
    "address2": null,
    "city": "Miami",
    "state": "Florida",
    "zip": "33132",
    "country": "United States",
    "notes": null,
    "accessHours": null,
    "timezone": "EST5EDT"
  },
  {
    "id": 316,
    "name": "Vallejo",
    "lat": 37.92595520698797,
    "lon": -122.0625142481964,
    "description": null,
    "address1": "2890 N Main St",
    "address2": "",
    "city": "Walnut Creek",
    "state": "California",
    "zip": "94597",
    "country": "United States",
    "notes": null,
    "accessHours": {
      "monday": [],
      "tuesday": [],
      "wednesday": [],
      "thursday": [],
      "friday": [],
      "saturday": [],
      "sunday": []
    },
    "timezone": "America/Los_Angeles"
  },
  {
    "id": 403,
    "name": "Craft Beverage",
    "lat": 36.0004412,
    "lon": -78.9034099,
    "description": null,
    "address1": "404 Hunt St STE 110",
    "address2": "",
    "city": "Durham",
    "state": "North Carolina",
    "zip": "27701",
    "country": "United States",
    "notes": null,
    "accessHours": {
      "monday": [],
      "tuesday": [],
      "wednesday": [],
      "thursday": [],
      "friday": [],
      "saturday": [],
      "sunday": []
    },
    "timezone": "US/Eastern"
  },
  {
    "id": 474,
    "name": "Hetzel St",
    "lat": 39.1580499,
    "lon": -84.4056004,
    "description": null,
    "address1": "1770 Hetzel St",
    "address2": "",
    "city": "Cincinnati",
    "state": "Ohio",
    "zip": "45227",
    "country": "United States",
    "notes": null,
    "accessHours": {
      "monday": [],
      "tuesday": [],
      "wednesday": [],
      "thursday": [],
      "friday": [],
      "saturday": [],
      "sunday": []
    },
    "timezone": "EST"
  },
  {
    "id": 731,
    "name": "E Inskip Dr",
    "lat": 36.0113116,
    "lon": -83.9613925,
    "description": null,
    "address1": "400 E INSKIP DR",
    "address2": null,
    "city": "Knoxville",
    "state": "Tennessee",
    "zip": "37912",
    "country": "United States",
    "notes": null,
    "accessHours": null,
    "timezone": "EST5EDT"
  },
  {
    "id": 671,
    "name": "Hidalgo St",
    "lat": 29.9906551,
    "lon": -90.1093885,
    "description": null,
    "address1": "708 Hidalgo St",
    "address2": null,
    "city": "New Orleans",
    "state": "Louisiana",
    "zip": "70124",
    "country": "United States",
    "notes": null,
    "accessHours": null,
    "timezone": "CST6CDT"
  },
  {
    "id": 654,
    "name": "Harbor Ave",
    "lat": 35.10843204625948,
    "lon": -90.08870497905507,
    "description": null,
    "address1": "1005 Harbor Ave",
    "address2": null,
    "city": "Memphis",
    "state": "Tennessee",
    "zip": "38106",
    "country": "United States",
    "notes": null,
    "accessHours": {
      "monday": [],
      "tuesday": [],
      "wednesday": [],
      "thursday": [],
      "friday": [],
      "saturday": [],
      "sunday": []
    },
    "timezone": "CST6CDT"
  },
  {
    "id": 332,
    "name": "LAX-5",
    "lat": 33.812662566387885,
    "lon": -118.33818207008734,
    "description": null,
    "address1": "23601 Telo Ave",
    "address2": "",
    "city": "Torrance",
    "state": "California",
    "zip": "90505",
    "country": "United States",
    "notes": null,
    "accessHours": {
      "monday": [],
      "tuesday": [],
      "wednesday": [],
      "thursday": [],
      "friday": [],
      "saturday": [],
      "sunday": []
    },
    "timezone": "America/Los_Angeles"
  },
  {
    "id": 675,
    "name": "Washington St",
    "lat": 40.71982,
    "lon": -74.03711,
    "description": null,
    "address1": "333 Washington St",
    "address2": null,
    "city": "New Jersey",
    "state": "New Jersey",
    "zip": "7302",
    "country": "United States",
    "notes": null,
    "accessHours": null,
    "timezone": "EST5EDT"
  },
  {
    "id": 696,
    "name": "S 3600 W",
    "lat": 40.7265721987,
    "lon": -111.9773070106,
    "description": null,
    "address1": "2098 S 3600 W",
    "address2": null,
    "city": "Salt Lake City",
    "state": "Utah",
    "zip": "84104",
    "country": "United States",
    "notes": null,
    "accessHours": null,
    "timezone": "MST7MDT"
  },
  {
    "id": 465,
    "name": "Kedzie Ave",
    "lat": 41.9472058,
    "lon": -87.70756279999999,
    "description": null,
    "address1": "3611 N Kedzie Ave",
    "address2": "",
    "city": "Chicago",
    "state": "Illinois",
    "zip": "60618",
    "country": "United States",
    "notes": null,
    "accessHours": {
      "monday": [],
      "tuesday": [],
      "wednesday": [],
      "thursday": [],
      "friday": [],
      "saturday": [],
      "sunday": []
    },
    "timezone": "CST6CDT"
  },
  {
    "id": 449,
    "name": "W Main Ave",
    "lat": 47.659305,
    "lon": -117.4214666,
    "description": null,
    "address1": "608 W Main Ave",
    "address2": "",
    "city": "Spokane",
    "state": "Washington",
    "zip": "99201",
    "country": "United States",
    "notes": "In front of doors to 601",
    "accessHours": {
      "monday": [],
      "tuesday": [],
      "wednesday": [],
      "thursday": [],
      "friday": [],
      "saturday": [],
      "sunday": []
    },
    "timezone": "PST8PDT"
  },
  {
    "id": 520,
    "name": "Cathedral St",
    "lat": 39.3019596207,
    "lon": -76.6176807748,
    "description": null,
    "address1": "1027 Cathedral St",
    "address2": null,
    "city": "Balitmore",
    "state": "Maryland",
    "zip": "21202",
    "country": "United States",
    "notes": null,
    "accessHours": null,
    "timezone": "CST6CDT"
  },
  {
    "id": 64,
    "name": "J st Market",
    "lat": 38.57456079478526,
    "lon": -121.47210252526699,
    "description": null,
    "address1": "2531 J st",
    "address2": null,
    "city": "Sacramento",
    "state": "California",
    "zip": "95816",
    "country": "United States",
    "notes": "",
    "accessHours": null,
    "timezone": null
  },
  {
    "id": 380,
    "name": "Lendr",
    "lat": 42.2698261,
    "lon": -83.4154793,
    "description": null,
    "address1": "5395 Cogswell Rd",
    "address2": "",
    "city": "Wayne",
    "state": "Michigan",
    "zip": "48184",
    "country": "United States",
    "notes": null,
    "accessHours": {
      "monday": [],
      "tuesday": [],
      "wednesday": [],
      "thursday": [],
      "friday": [],
      "saturday": [],
      "sunday": []
    },
    "timezone": "US/Central"
  },
  {
    "id": 653,
    "name": "S Louisiana St",
    "lat": 34.743429,
    "lon": -92.272481,
    "description": null,
    "address1": "523 S Louisiana St",
    "address2": null,
    "city": "Little Rock",
    "state": "Arkansas",
    "zip": "72201",
    "country": "United States",
    "notes": null,
    "accessHours": null,
    "timezone": "EST5EDT"
  },
  {
    "id": 55,
    "name": "Kyoshin-Ryu Karate",
    "lat": 37.29555082067978,
    "lon": -122.03144730924089,
    "description": null,
    "address1": "1560 S DeAnza Blvd",
    "address2": null,
    "city": "San Jose",
    "state": "California",
    "zip": "95129",
    "country": "United States",
    "notes": "",
    "accessHours": null,
    "timezone": null
  },
  {
    "id": 130,
    "name": "SMF-17",
    "lat": 38.74493,
    "lon": -121.23423,
    "description": null,
    "address1": "3001 DOUGLAS BLVD",
    "address2": null,
    "city": "Roseville",
    "state": "California",
    "zip": "95661",
    "country": "United States",
    "notes": null,
    "accessHours": null,
    "timezone": null
  },
  {
    "id": 148,
    "name": "Relai Monroevile Storage",
    "lat": 40.3963244273437,
    "lon": -79.7684590709331,
    "description": null,
    "address1": "4400 Broadway Blvd",
    "address2": null,
    "city": "Monroeville",
    "state": "Pennsylvania",
    "zip": "15146",
    "country": "United States",
    "notes": "",
    "accessHours": {
      "monday": [],
      "tuesday": [],
      "wednesday": [],
      "thursday": [],
      "friday": [],
      "saturday": [],
      "sunday": []
    },
    "timezone": "US/Eastern"
  },
  {
    "id": 486,
    "name": "Dixie Hwy",
    "lat": 38.1515188,
    "lon": -85.83620289999999,
    "description": null,
    "address1": "6801 Dixie Hwy",
    "address2": "",
    "city": "Louisville",
    "state": "Kentucky",
    "zip": "40258",
    "country": "United States",
    "notes": null,
    "accessHours": {
      "monday": [],
      "tuesday": [],
      "wednesday": [],
      "thursday": [],
      "friday": [],
      "saturday": [],
      "sunday": []
    },
    "timezone": "EST"
  },
  {
    "id": 435,
    "name": "Mission Center Ct",
    "lat": 32.7737119,
    "lon": -117.154779,
    "description": null,
    "address1": "7871 Mission Center Ct",
    "address2": "",
    "city": "San Diego",
    "state": "California",
    "zip": "92108",
    "country": "United States",
    "notes": null,
    "accessHours": {
      "monday": [],
      "tuesday": [],
      "wednesday": [],
      "thursday": [],
      "friday": [],
      "saturday": [],
      "sunday": []
    },
    "timezone": "PST8PDT"
  },
  {
    "id": 612,
    "name": "Den - 1940 Blake",
    "lat": 39.75408903271586,
    "lon": -104.99470655398804,
    "description": null,
    "address1": "1940 Blake St",
    "address2": null,
    "city": "Denver",
    "state": "Colorado",
    "zip": "80202",
    "country": "United States",
    "notes": "",
    "accessHours": {
      "monday": [],
      "tuesday": [],
      "wednesday": [],
      "thursday": [],
      "friday": [],
      "saturday": [],
      "sunday": []
    },
    "timezone": "CST6CDT"
  }
]